city,district,region,longitude,latitude,country
Виноградів,Виноградівський район,Закарпатська область,23.04674,48.14072,Україна
Вилок,Виноградівський район,Закарпатська область,22.83835,48.11033,Україна
Королево,Виноградівський район,Закарпатська область,23.14631,48.14724,Україна
Берегове,Берегівський район,Закарпатська область,22.64591,48.20543,Україна
Неветленфолу,Виноградівський район,Закарпатська область,22.99593,48.01609,Україна
Берегуйфалу,Берегівський район,Закарпатська область,22.80779,48.2765,Україна
Хмільник,Іршавський район,Закарпатська область,22.90546,48.27976,Україна
Кам'янське,Іршавський район,Закарпатська область,22.93842,48.27976,Україна
Великі Береги,Берегівський район,Закарпатська область,22.75045,48.23152,Україна
Велика Бийгань,Берегівський район,Закарпатська область,22.57485,48.248,Україна
Дийда,Берегівський район,Закарпатська область,22.57433,48.21899,Україна
Чома,Берегівський район,Закарпатська область,22.63304,48.13539,Україна
Бадалово,Берегівський район,Закарпатська область,22.63578,48.10982,Україна
Вари,Берегівський район,Закарпатська область,22.71046,48.12509,Україна
Боржава,Берегівський район,Закарпатська область,22.72162,48.15634,Україна
Мужієво,Берегівський район,Закарпатська область,22.70582,48.1802,Україна
Бене,Берегівський район,Закарпатська область,22.75698,48.16629,Україна
Косонь,Берегівський район,Закарпатська область,22.4552,48.25573,Україна
Запсонь,Берегівський район,Закарпатська область,22.46996,48.27993,Україна
Шаланки,Виноградівський район,Закарпатська область,22.88384,48.22775,Україна
Пушкіно,Виноградівський район,Закарпатська область,22.85997,48.17299,Україна
Вербовець,Виноградівський район,Закарпатська область,22.90873,48.16801,Україна
Підвиноградів,Виноградівський район,Закарпатська область,23.00125,48.13728,Україна
Нове Село,Виноградівський район,Закарпатська область,22.89036,48.11806,Україна
Фанчиково,Виноградівський район,Закарпатська область,22.9434,48.11376,Україна
Тросник,Виноградівський район,Закарпатська область,22.95044,48.09986,Україна
Ботар,Виноградівський район,Закарпатська область,22.97018,48.02656,Україна
Великі Ком'яти,Виноградівський район,Закарпатська область,22.97894,48.23856,Україна
Вільхівка,Іршавський район,Закарпатська область,23.07386,48.26345,Україна
Боржавське,Виноградівський район,Закарпатська область,23.05567,48.2547,Україна
Великий Раковець,Іршавський район,Закарпатська область,23.16759,48.27083,Україна
Рокосово,Хустський район,Закарпатська область,23.17909,48.20869,Україна
Велика Копаня,Виноградівський район,Закарпатська область,23.12794,48.19153,Україна
Букове,Виноградівський район,Закарпатська область,23.07009,48.18106,Україна
Чепа,Виноградівський район,Закарпатська область,23.01842,48.06913,Україна
Чорнотисів,Виноградівський район,Закарпатська область,23.05361,48.07823,Україна
Дюла,Виноградівський район,Закарпатська область,23.07781,48.03411,Україна
Сасово,Виноградівський район,Закарпатська область,23.07541,48.09437,Україна
Теково,Виноградівський район,Закарпатська область,23.09927,48.12355,Україна
Хижа,Виноградівський район,Закарпатська область,23.20656,48.10896,Україна
Черна,Виноградівський район,Закарпатська область,23.19111,48.13694,Україна
Фертешолмаш,Виноградівський район,Закарпатська область,22.92692,47.9809,Україна
Тисобикень,Виноградівський район,Закарпатська область,22.89602,48.07239,Україна
Гудя,Виноградівський район,Закарпатська область,23.12536,48.11514,Україна
Новоселиця,Виноградівський район,Закарпатська область,23.22579,48.12939,Україна
Кривий,Хустський район,Закарпатська область,23.23351,48.17264,Україна
Нижні Ремети,Берегівський район,Закарпатська область,22.8265,48.25745,Україна
Верхні Ремети,Берегівський район,Закарпатська область,22.86135,48.26706,Україна
Заріччя,Іршавський район,Закарпатська область,22.99095,48.27959,Україна
Онок,Виноградівський район,Закарпатська область,23.004,48.22346,Україна
Перехрестя,Виноградівський район,Закарпатська область,22.8368,48.13728,Україна
Оросієво,Берегівський район,Закарпатська область,22.81929,48.16286,Україна
Чорний Потік,Виноградівський район,Закарпатська область,22.90667,48.18088,Україна
Матійово,Виноградівський район,Закарпатська область,22.91199,48.13179,Україна
Карачин,Виноградівський район,Закарпатська область,22.86959,48.13179,Україна
Затисівка,Виноградівський район,Закарпатська область,22.98924,48.06295,Україна
Форголань,Виноградівський район,Закарпатська область,22.95611,48.05214,Україна
Велика Паладь,Виноградівський район,Закарпатська область,22.88229,48.0003,Україна
Гребля,Іршавський район,Закарпатська область,23.04932,48.28302,Україна
Нижнє Болотне,Іршавський район,Закарпатська область,23.09704,48.2662,Україна
Малий Раковець,Іршавський район,Закарпатська область,23.20656,48.26414,Україна
Заболотне,Іршавський район,Закарпатська область,23.11661,48.24217,Україна
Вертеп,Хустський район,Закарпатська область,23.1336,48.22346,Україна
Мала Копаня,Виноградівський район,Закарпатська область,23.09481,48.16938,Україна
Холмовець,Виноградівський район,Закарпатська область,23.0967,48.05797,Україна
Чертіж,Хустський район,Закарпатська область,23.24295,48.19067,Україна
Гетиня,Виноградівський район,Закарпатська область,23.01687,48.0887,Україна
Дротинці,Виноградівський район,Закарпатська область,22.987,48.10484,Україна
Пийтерфолво,Виноградівський район,Закарпатська область,22.9343,48.06175,Україна
Оклі,Виноградівський район,Закарпатська область,23.01601,48.00218,Україна
Оклі Гедь,Виноградівський район,Закарпатська область,23.06202,48.01283,Україна
Нове Клинове,Виноградівський район,Закарпатська область,23.03867,48.01746,Україна
Мала Бийгань,Берегівський район,Закарпатська область,22.57828,48.27169,Україна
Астей,Берегівський район,Закарпатська область,22.5975,48.16904,Україна
Велика Бакта,Берегівський район,Закарпатська область,22.66394,48.1608,Україна
Геча,Берегівський район,Закарпатська область,22.65793,48.13969,Україна
Квасово,Берегівський район,Закарпатська область,22.77037,48.18621,Україна
Кідьош,Берегівський район,Закарпатська область,22.69758,48.21813,Україна
Затишне,Берегівський район,Закарпатська область,22.66909,48.23032,Україна
Попово,Берегівський район,Закарпатська область,22.42207,48.26946,Україна
Мале Попово,Берегівський район,Закарпатська область,22.38756,48.26259,Україна
Гетен,Берегівський район,Закарпатська область,22.38344,48.27616,Україна
Галабор,Берегівський район,Закарпатська область,22.67801,48.10106,Україна
Руська Долина,Виноградівський район,Закарпатська область,22.9283,48.12698,Україна
Олешник,Виноградівський район,Закарпатська область,22.9549,48.16698,Україна
Веряця,Виноградівський район,Закарпатська область,23.16038,48.16578,Україна
Горбки,Виноградівський район,Закарпатська область,23.1815,48.15565,Україна
Притисянське,Виноградівський район,Закарпатська область,22.91697,48.11273,Україна
Вербове,Виноградівський район,Закарпатська область,22.91285,48.11874,Україна
Балажер,Берегівський район,Закарпатська область,22.60866,48.24646,Україна
Мочола,Берегівський район,Закарпатська область,22.62823,48.15754,Україна
Гуняді,Берегівський район,Закарпатська область,22.60798,48.14552,Україна
Яноші,Берегівський район,Закарпатська область,22.63064,48.24474,Україна
Широке,Виноградівський район,Закарпатська область,23.11283,48.22208,Україна
Тячів,Тячівський район,Закарпатська область,23.57838,48.01163,Україна
Солотвино,Тячівський район,Закарпатська область,23.88119,47.9579,Україна
Буштино,Тячівський район,Закарпатська область,23.48534,48.0475,Україна
Тересва,Тячівський район,Закарпатська область,23.69957,47.99789,Україна
Великий Бичків,Рахівський район,Закарпатська область,24.01543,47.96511,Україна
Вишково,Хустський район,Закарпатська область,23.42972,48.05265,Україна
Дубове,Тячівський район,Закарпатська область,23.88445,48.19359,Україна
Рахів,Рахівський район,Закарпатська область,24.20357,48.05574,Україна
Ясіня,Рахівський район,Закарпатська область,24.36115,48.27255,Україна
Кобилецька Поляна,Рахівський район,Закарпатська область,24.0719,48.05746,Україна
Хуст,Хустський район,Закарпатська область,23.29067,48.17814,Україна
Богдан,Рахівський район,Закарпатська область,24.34296,48.03583,Україна
Велятин,Хустський район,Закарпатська область,23.3135,48.1093,Україна
Руське Поле,Тячівський район,Закарпатська область,23.53357,48.05712,Україна
Стеблівка,Хустський район,Закарпатська область,23.42182,48.09059,Україна
Новобарово,Тячівський район,Закарпатська область,23.50697,48.0978,Україна
Сокирниця,Хустський район,Закарпатська область,23.39985,48.12406,Україна
Данилово,Хустський район,Закарпатська область,23.45873,48.14741,Україна
Боронява,Хустський район,Закарпатська область,23.38543,48.15754,Україна
Нижнє Селище,Хустський район,Закарпатська область,23.44757,48.1996,Україна
Копашново,Хустський район,Закарпатська область,23.48242,48.21556,Україна
Дулово,Тячівський район,Закарпатська область,23.58713,48.1426,Україна
Угля,Тячівський район,Закарпатська область,23.62988,48.15205,Україна
Кричово,Тячівський район,Закарпатська область,23.56842,48.1917,Україна
Чумальово,Тячівський район,Закарпатська область,23.5437,48.18947,Україна
Золотарьово,Хустський район,Закарпатська область,23.50164,48.18071,Україна
Жовтневе,Хустський район,Закарпатська область,23.54439,48.22328,Україна
Кошельово,Хустський район,Закарпатська область,23.33204,48.23788,Україна
Широкий Луг,Тячівський район,Закарпатська область,23.75433,48.21539,Україна
Красна,Тячівський район,Закарпатська область,23.9459,48.23358,Україна
Солоне,Тячівський район,Закарпатська область,23.85853,48.12527,Україна
Терново,Тячівський район,Закарпатська область,23.73785,48.07411,Україна
Грушово,Тячівський район,Закарпатська область,23.76257,48.00699,Україна
Нижня Апша,Тячівський район,Закарпатська область,23.83827,47.99738,Україна
Глибокий Потік,Тячівський район,Закарпатська область,23.89389,48.05729,Україна
Кічерели,Хустський район,Закарпатська область,23.62284,48.24886,Україна
Тарасівка,Тячівський район,Закарпатська область,23.81441,48.20749,Україна
Теребля,Тячівський район,Закарпатська область,23.59297,48.11136,Україна
Костилівка,Рахівський район,Закарпатська область,24.20374,47.99274,Україна
Видричка,Рахівський район,Закарпатська область,24.33678,48.05385,Україна
Вільховатий,Рахівський район,Закарпатська область,24.17044,48.01197,Україна
Луг,Рахівський район,Закарпатська область,24.05439,47.96099,Україна
Хмелів,Рахівський район,Закарпатська область,24.15619,47.91807,Україна
Ділове,Рахівський район,Закарпатська область,24.1749,47.93575,Україна
Середнє Водяне,Рахівський район,Закарпатська область,23.8999,47.97953,Україна
Іза,Хустський район,Закарпатська область,23.32878,48.21384,Україна
Драгово,Хустський район,Закарпатська область,23.54645,48.2365,Україна
Липча,Хустський район,Закарпатська область,23.38183,48.26328,Україна
Горінчово,Хустський район,Закарпатська область,23.43401,48.2698,Україна
Підплеша,Тячівський район,Закарпатська область,23.80034,48.13145,Україна
Ганичі,Тячівський район,Закарпатська область,23.83913,48.12544,Україна
Вільхівці,Тячівський район,Закарпатська область,23.73957,48.09917,Україна
Добрянське,Тячівський район,Закарпатська область,23.7097,48.06742,Україна
Крива,Тячівський район,Закарпатська область,23.71399,48.02828,Україна
Бедевля,Тячівський район,Закарпатська область,23.66421,48.0039,Україна
Біла Церква,Рахівський район,Закарпатська область,23.92651,47.95086,Україна
Осава,Хустський район,Закарпатська область,23.35951,48.28268,Україна
Лунка,Хустський район,Закарпатська область,23.48826,48.22328,Україна
Хустець,Хустський район,Закарпатська область,23.48293,48.24388,Україна
Посіч,Хустський район,Закарпатська область,23.41393,48.25298,Україна
Ділок,Хустський район,Закарпатська область,23.45547,48.25933,Україна
Поляна,Хустський район,Закарпатська область,23.51555,48.26002,Україна
Становець,Хустський район,Закарпатська область,23.55434,48.26156,Україна
Залом,Хустський район,Закарпатська область,23.31694,48.25642,Україна
Липовець,Хустський район,Закарпатська область,23.30475,48.27564,Україна
Крайниково,Хустський район,Закарпатська область,23.44053,48.1196,Україна
Олександрівка,Хустський район,Закарпатська область,23.51006,48.13745,Україна
Кіреші,Хустський район,Закарпатська область,23.35247,48.18878,Україна
Карповтлаш,Хустський район,Закарпатська область,23.38783,48.20354,Україна
Нанково,Хустський район,Закарпатська область,23.41856,48.19805,Україна
Колодне,Тячівський район,Закарпатська область,23.59829,48.16509,Україна
Фонтиняси,Тячівський район,Закарпатська область,23.75639,48.24148,Україна
Вільхівці-лази,Тячівський район,Закарпатська область,23.69768,48.12578,Україна
Ракове,Тячівський район,Закарпатська область,23.69064,48.11823,Україна
Вільхівчик,Тячівський район,Закарпатська область,23.74231,48.1275,Україна
Бобове,Тячівський район,Закарпатська область,23.66678,48.12441,Україна
Груники,Тячівський район,Закарпатська область,23.66575,48.14535,Україна
Пригідь,Тячівський район,Закарпатська область,23.74163,48.26105,Україна
Тячівка,Тячівський район,Закарпатська область,23.59778,48.03909,Україна
Вишоватий,Тячівський район,Закарпатська область,23.75742,48.09093,Україна
Подішор,Тячівський район,Закарпатська область,23.86591,48.04235,Україна
Топчино,Тячівський район,Закарпатська область,23.85269,48.03892,Україна
Пещера,Тячівський район,Закарпатська область,23.86677,48.05815,Україна
Петрушів,Тячівський район,Закарпатська область,23.80652,48.07669,Україна
Лази,Тячівський район,Закарпатська область,23.64481,48.05815,Україна
Руня,Тячівський район,Закарпатська область,23.63966,48.04012,Україна
Округла,Тячівський район,Закарпатська область,23.66472,48.08407,Україна
Дібрівка,Тячівський район,Закарпатська область,23.66283,48.03463,Україна
Глиняний,Тячівський район,Закарпатська область,23.6776,48.02639,Україна
Сасово,Тячівський район,Закарпатська область,23.70043,48.10037,Україна
Біловарці,Тячівський район,Закарпатська область,23.69425,48.03051,Україна
Плаюць,Рахівський район,Закарпатська область,23.9411,48.01815,Україна
Добрік,Рахівський район,Закарпатська область,23.90333,48.01214,Україна
Стримба,Рахівський район,Закарпатська область,23.91586,48.04407,Україна
Модьорош,Хустський район,Закарпатська область,23.34887,48.07291,Україна
Шаян,Хустський район,Закарпатська область,23.34921,48.05918,Україна
Ракош,Хустський район,Закарпатська область,23.39333,48.04321,Україна
Вонігове,Тячівський район,Закарпатська область,23.52739,48.07497,Україна
Зарічне,Хустський район,Закарпатська область,23.28724,48.20234,Україна
Вишній Дубовець,Тячівський район,Закарпатська область,23.90642,48.17831,Україна
Нижній Дубовець,Тячівський район,Закарпатська область,23.90247,48.15977,Україна
Сітний,Рахівський район,Закарпатська область,24.29403,48.12235,Україна
Бребоя,Рахівський район,Закарпатська область,24.38776,48.0487,Україна
Росішка,Рахівський район,Закарпатська область,24.06967,47.98502,Україна
Круглий,Рахівський район,Закарпатська область,24.18846,47.96047,Україна
Білин,Рахівський район,Закарпатська область,24.25404,48.11102,Україна
Новоселиця,Тячівський район,Закарпатська область,23.75776,48.16698,Україна
Тисалово,Тячівський район,Закарпатська область,23.77733,48.13831,Україна
Нересниця,Тячівський район,Закарпатська область,23.76909,48.12269,Україна
Велика Уголька,Тячівський район,Закарпатська область,23.65683,48.19805,Україна
Мала Уголька,Тячівський район,Закарпатська область,23.63829,48.17676,Україна
Яблунівка,Хустський район,Закарпатська область,23.52173,48.01454,Україна
Калини,Тячівський район,Закарпатська область,23.86694,48.13934,Україна
Косівська Поляна,Рахівський район,Закарпатська область,24.10675,48.00304,Україна
Тростянець,Рахівський район,Закарпатська область,24.26725,48.15874,Україна
Росош,Тячівський район,Закарпатська область,23.59005,48.23976,Україна
Кутлаш,Хустський район,Закарпатська область,23.47813,48.2777,Україна
Сюрюк,Хустський район,Закарпатська область,23.47384,48.27135,Україна
Верхнє Водяне,Рахівський район,Закарпатська область,23.96805,47.99566,Україна
Кваси,Рахівський район,Закарпатська область,24.28202,48.14569,Україна
Розтоки,Рахівський район,Закарпатська область,24.30725,48.06999,Україна
Сарата,Путильський район,Чернівецька область,24.99338,47.74916,Україна
Ворохта,м. Яремча,Івано-Франківська область,24.57436,48.28268,Україна
Верховина,Верховинський район,Івано-Франківська область,24.81812,48.15531,Україна
Кути,Косівський район,Івано-Франківська область,25.18118,48.26362,Україна
Вижниця,Вижницький район,Чернівецька область,25.17946,48.24217,Україна
Путила,Путильський район,Чернівецька область,25.08642,47.99017,Україна
Берегомет,Вижницький район,Чернівецька область,25.31971,48.16887,Україна
Бабин,Косівський район,Івано-Франківська область,25.04282,48.27633,Україна
Малий Рожин,Косівський район,Івано-Франківська область,25.07973,48.26088,Україна
Річка,Косівський район,Івано-Франківська область,24.93313,48.2801,Україна
Барвінків,Верховинський район,Івано-Франківська область,25.01329,48.1172,Україна
Біла Річка,Верховинський район,Івано-Франківська область,24.89519,47.96511,Україна
Берестечко,Верховинський район,Івано-Франківська область,24.6801,48.10587,Україна
Буковець,Верховинський район,Івано-Франківська область,24.93914,48.19977,Україна
Рівня,Верховинський район,Івано-Франківська область,24.95527,48.13728,Україна
Кохан,Верховинський район,Івано-Франківська область,24.9436,48.09196,Україна
Криворівня,Верховинський район,Івано-Франківська область,24.89657,48.17522,Україна
Перехресне,Верховинський район,Івано-Франківська область,24.92403,48.09917,Україна
Полянки,Верховинський район,Івано-Франківська область,24.95493,48.06587,Україна
Сеньківське,Верховинський район,Івано-Франківська область,24.85743,48.03823,Україна
Стаїще,Верховинський район,Івано-Франківська область,24.73332,48.18621,Україна
Стовпні,Верховинський район,Івано-Франківська область,24.82189,47.98777,Україна
Топільче,Верховинський район,Івано-Франківська область,24.73761,48.08647,Україна
Хороцеве,Верховинський район,Івано-Франківська область,25.01741,48.13265,Україна
Черетів,Верховинський район,Івано-Франківська область,24.97433,48.21127,Україна
Явірник,Верховинський район,Івано-Франківська область,24.74224,48.02347,Україна
Снідавка,Косівський район,Івано-Франківська область,24.86343,48.24062,Україна
Голови,Верховинський район,Івано-Франківська область,24.87906,48.06209,Україна
Голошина,Путильський район,Чернівецька область,24.88609,47.88751,Україна
Грамотне,Верховинський район,Івано-Франківська область,24.84524,47.95584,Україна
Замагора,Верховинський район,Івано-Франківська область,24.82138,48.10175,Україна
Красноїлля,Верховинський район,Івано-Франківська область,24.9048,48.1081,Україна
Пробійнівка,Верховинський район,Івано-Франківська область,24.8255,47.97352,Україна
Яблуниця,Верховинський район,Івано-Франківська область,24.91287,48.01351,Україна
Зелене,Верховинський район,Івано-Франківська область,24.75597,48.05094,Україна
Розтоки,Путильський район,Чернівецька область,25.13105,48.18346,Україна
Тюдів,Косівський район,Івано-Франківська область,25.13037,48.23942,Україна
Старі Кути,Косівський район,Івано-Франківська область,25.16075,48.27907,Україна
Бистрець,Верховинський район,Івано-Франківська область,24.69229,48.12303,Україна
Устеріки,Верховинський район,Івано-Франківська область,24.99012,48.12733,Україна
Чорна Річка,Верховинський район,Івано-Франківська область,24.86876,48.08596,Україна
Білоберізка,Верховинський район,Івано-Франківська область,25.04694,48.16561,Україна
Ільці,Верховинський район,Івано-Франківська область,24.75992,48.15307,Україна
Яворів,Косівський район,Івано-Франківська область,25.02085,48.22071,Україна
Шепіт,Косівський район,Івано-Франківська область,24.85657,48.26517,Україна
Буркут,Верховинський район,Івано-Франківська область,24.69503,47.94296,Україна
Верхній Ясенів,Верховинський район,Івано-Франківська область,24.94532,48.16131,Україна
Волова,Верховинський район,Івано-Франківська область,24.69933,48.24097,Україна
Гринява,Верховинський район,Івано-Франківська область,24.8703,47.98159,Україна
Кривопілля,Верховинський район,Івано-Франківська область,24.69606,48.19462,Україна
Бережниця,Верховинський район,Івано-Франківська область,24.83511,48.20354,Україна
Черемошна,Верховинський район,Івано-Франківська область,24.93004,48.0427,Україна
Красник,Верховинський район,Івано-Франківська область,24.73623,48.14449,Україна
Великий Рожин,Косівський район,Івано-Франківська область,25.03664,48.2135,Україна
Вигода,Верховинський район,Івано-Франківська область,24.96952,48.13145,Україна
Липовани,Вижницький район,Чернівецька область,25.45258,48.22809,Україна
Лопушина,Вижницький район,Чернівецька область,25.28624,48.08716,Україна
Луківці,Вижницький район,Чернівецька область,25.42477,48.19719,Україна
Чорногузи,Вижницький район,Чернівецька область,25.2277,48.27049,Україна
Фальків,Вижницький район,Чернівецька область,25.42305,47.95858,Україна
Дихтинець,Путильський район,Чернівецька область,25.04522,48.06072,Україна
Нижній Яловець,Путильський район,Чернівецька область,24.99767,47.85524,Україна
Плоска,Путильський район,Чернівецька область,25.14204,47.91241,Україна
Тораки,Путильський район,Чернівецька область,25.07114,48.02021,Україна
Шепіт,Путильський район,Чернівецька область,25.14187,47.80477,Україна
Яблуниця,Верховинський район,Івано-Франківська область,24.92008,48.02776,Україна
Черешенька,Вижницький район,Чернівецька область,25.28143,48.21882,Україна
Багна,Вижницький район,Чернівецька область,25.23096,48.22431,Україна
Банилів-підгірний,Сторожинецький район,Чернівецька область,25.49292,48.09385,Україна
Вахнівці,Вижницький район,Чернівецька область,25.47987,48.25727,Україна
Велике,Вижницький район,Чернівецька область,25.41395,48.15822,Україна
Виженка,Вижницький район,Чернівецька область,25.18513,48.2123,Україна
Долішній Шепіт,Вижницький район,Чернівецька область,25.28795,48.01248,Україна
Заріччя,Вижницький район,Чернівецька область,25.32486,48.1584,Україна
Лекечі,Вижницький район,Чернівецька область,25.28795,48.11891,Україна
Мигове,Вижницький район,Чернівецька область,25.38082,48.14964,Україна
Середній Майдан,Вижницький район,Чернівецька область,25.37396,48.26105,Україна
Косованка,Сторожинецький район,Чернівецька область,25.49669,48.2365,Україна
Стара Жадова,Сторожинецький район,Чернівецька область,25.49463,48.19805,Україна
Андреківське,Путильський район,Чернівецька область,25.11629,47.80254,Україна
Великий Липовець,Путильський район,Чернівецька область,24.99149,48.05351,Україна
Верхній Яловець,Путильський район,Чернівецька область,25.07303,47.82417,Україна
Випчина,Путильський район,Чернівецька область,25.03458,47.90176,Україна
Галицівка,Путильський район,Чернівецька область,25.25311,47.90708,Україна
Замогила,Путильський район,Чернівецька область,25.08694,48.04544,Україна
Киселиці,Путильський район,Чернівецька область,25.05449,48.03463,Україна
Лустун,Путильський район,Чернівецька область,25.18736,47.91893,Україна
Мариничі,Путильський район,Чернівецька область,25.04076,48.12269,Україна
Міжброди,Путильський район,Чернівецька область,25.11852,48.22689,Україна
Околена,Путильський район,Чернівецька область,25.09449,48.15925,Україна
Петраші,Путильський район,Чернівецька область,25.09895,48.13402,Україна
Плай,Путильський район,Чернівецька область,24.92455,47.98519,Україна
Плита,Путильський район,Чернівецька область,24.97879,48.03291,Україна
Площі,Путильський район,Чернівецька область,25.06497,48.05025,Україна
Підзахаричі,Путильський район,Чернівецька область,25.12608,48.20835,Україна
Поляківське,Путильський район,Чернівецька область,25.08745,48.01969,Україна
Розтоки,Путильський район,Чернівецька область,25.14118,48.16749,Україна
Рижа,Путильський район,Чернівецька область,25.05982,47.96579,Україна
Рипень,Путильський район,Чернівецька область,25.08041,47.94279,Україна
Самакова,Путильський район,Чернівецька область,24.97776,48.00648,Україна
Селятин,Путильський район,Чернівецька область,25.1865,47.87344,Україна
Сергії,Путильський район,Чернівецька область,25.14856,47.98553,Україна
Соколій,Путильський район,Чернівецька область,25.06016,48.02639,Україна
Тесницька,Путильський район,Чернівецька область,25.16796,47.98021,Україна
Фошки,Путильський район,Чернівецька область,25.19011,47.96682,Україна
Хорови,Путильський район,Чернівецька область,25.14479,48.18054,Україна
Шпетки,Путильський район,Чернівецька область,25.01501,48.10449,Україна
Ями,Путильський район,Чернівецька область,25.12814,48.16097,Україна
Голошина,Путильський район,Чернівецька область,24.94515,47.93112,Україна
Паркулина,Путильський район,Чернівецька область,25.12608,47.98794,Україна
Стебні,Верховинський район,Івано-Франківська область,25.02239,48.0796,Україна
Вовчинець,Вижницький район,Чернівецька область,25.44468,48.16681,Україна
Товарниця,Путильський район,Чернівецька область,25.175,48.13024,Україна
Малий Дихтинець,Путильський район,Чернівецька область,25.02359,48.04802,Україна
Руська,Путильський район,Чернівецька область,25.26152,47.91155,Україна
Гробище,Путильський район,Чернівецька область,25.0569,47.99532,Україна
Конятин,Путильський район,Чернівецька область,24.93862,48.0427,Україна
Довгопілля,Путильський район,Чернівецька область,24.97364,48.07016,Україна
Майдан,Вижницький район,Чернівецька область,25.43644,48.26259,Україна
Майдан,Вижницький район,Чернівецька область,25.31885,48.26002,Україна
Греблина,Путильський район,Чернівецька область,25.02497,48.06089,Україна
Греблина,Путильський район,Чернівецька область,24.99544,48.08304,Україна
Бісків,Путильський район,Чернівецька область,25.17019,48.09214,Україна
Бісків,Путильський район,Чернівецька область,25.08127,48.08681,Україна
Усть-путила,Путильський район,Чернівецька область,25.1635,48.05797,Україна
Говерла,Рахівський район,Закарпатська область,24.45059,48.07789,Україна
Луги,Рахівський район,Закарпатська область,24.4384,48.06415,Україна
Лазещина,Рахівський район,Закарпатська область,24.41488,48.27392,Україна
Новоселиця,Новоселицький район,Чернівецька область,26.27415,48.21865,Україна
Герца,Герцаївський район,Чернівецька область,26.26196,48.1493,Україна
Сторожинець,Сторожинецький район,Чернівецька область,25.72243,48.16114,Україна
Глибока,Глибоцький район,Чернівецька область,25.92894,48.08578,Україна
Красноїльськ,Сторожинецький район,Чернівецька область,25.60175,48.01866,Україна
Бояни,Новоселицький район,Чернівецька область,26.12463,48.27066,Україна
Котелеве,Новоселицький район,Чернівецька область,26.35637,48.28354,Україна
Кошуляни,Новоселицький район,Чернівецька область,26.56254,48.24921,Україна
Новоіванківці,Новоселицький район,Чернівецька область,26.48272,48.22431,Україна
Ревківці,Новоселицький район,Чернівецька область,26.20857,48.28113,Україна
Слобода,Новоселицький район,Чернівецька область,26.20085,48.27616,Україна
Строїнці,Новоселицький район,Чернівецька область,26.25355,48.24371,Україна
Бобівці,Сторожинецький район,Чернівецька область,25.68775,48.2638,Україна
Буденець,Сторожинецький район,Чернівецька область,25.65222,48.0851,Україна
Дібрівка,Сторожинецький район,Чернівецька область,25.54991,48.24886,Україна
Кам'яна,Сторожинецький район,Чернівецька область,25.85564,48.22328,Україна
Панка,Сторожинецький район,Чернівецька область,25.64793,48.1735,Україна
Комарівці,Сторожинецький район,Чернівецька область,25.58493,48.1953,Україна
Костинці,Сторожинецький район,Чернівецька область,25.64467,48.27976,Україна
Михальча,Сторожинецький район,Чернівецька область,25.851,48.25144,Україна
Нова Красношора,Сторожинецький район,Чернівецька область,25.54596,48.06553,Україна
Слобода-комарівці,Сторожинецький район,Чернівецька область,25.63179,48.22397,Україна
Стара Красношора,Сторожинецький район,Чернівецька область,25.52897,48.03823,Україна
Череш,Сторожинецький район,Чернівецька область,25.61068,48.09763,Україна
Ясени,Сторожинецький район,Чернівецька область,25.66372,48.27478,Україна
Багринівка,Глибоцький район,Чернівецька область,25.94336,47.98347,Україна
Черепківці,Глибоцький район,Чернівецька область,25.96481,48.02193,Україна
Валя Кузьмина,Глибоцький район,Чернівецька область,26.01837,48.1838,Україна
Верхні Синівці,Глибоцький район,Чернівецька область,26.11382,48.01489,Україна
Димка,Глибоцький район,Чернівецька область,25.96584,48.09265,Україна
Коровія,Глибоцький район,Чернівецька область,25.97082,48.2262,Україна
Корчівці,Глибоцький район,Чернівецька область,25.79264,48.01283,Україна
Купка,Глибоцький район,Чернівецька область,25.78199,48.0439,Україна
Михайлівка,Глибоцький район,Чернівецька область,25.97408,48.11582,Україна
Нижні Синівці,Глибоцький район,Чернівецька область,26.12944,48.00682,Україна
Привороки,Глибоцький район,Чернівецька область,26.02816,48.10123,Україна
Станівці,Глибоцький район,Чернівецька область,26.06558,48.07291,Україна
Чагор,Глибоцький район,Чернівецька область,25.98713,48.24097,Україна
Червона Діброва,Глибоцький район,Чернівецька область,25.9298,48.13831,Україна
Горбова,Герцаївський район,Чернівецька область,26.17167,48.21024,Україна
Дяківці,Герцаївський район,Чернівецька область,26.24256,48.10261,Україна
Куликівка,Герцаївський район,Чернівецька область,26.1672,48.09471,Україна
Петрашівка,Герцаївський район,Чернівецька область,26.10884,48.09797,Україна
Тернавка,Герцаївський район,Чернівецька область,26.20686,48.11376,Україна
Цурень,Герцаївський район,Чернівецька область,26.10094,48.2365,Україна
Мала Буда,Герцаївський район,Чернівецька область,26.11227,48.16286,Україна
Хряцька,Герцаївський район,Чернівецька область,26.18712,48.15668,Україна
Турятка,Глибоцький район,Чернівецька область,26.14403,48.04802,Україна
Тарашани,Глибоцький район,Чернівецька область,26.01357,48.1184,Україна
Молниця,Герцаївський район,Чернівецька область,26.2254,48.19427,Україна
Драниця,Новоселицький район,Чернівецька область,26.53078,48.23015,Україна
Костичани,Новоселицький район,Чернівецька область,26.50932,48.22758,Україна
Молодія,Глибоцький район,Чернівецька область,26.02387,48.2274,Україна
Ропча,Сторожинецький район,Чернівецька область,25.76655,48.11754,Україна
Остриця,Новоселицький район,Чернівецька область,26.05339,48.25727,Україна
Тарасівці,Новоселицький район,Чернівецька область,26.36719,48.20269,Україна
Ванчиківці,Новоселицький район,Чернівецька область,26.44787,48.21539,Україна
Думени,Новоселицький район,Чернівецька область,26.49765,48.2214,Україна
Мамалига,Новоселицький район,Чернівецька область,26.58743,48.25556,Україна
Нові Бросківці,Сторожинецький район,Чернівецька область,25.69737,48.23891,Україна
Волока,Глибоцький район,Чернівецька область,25.94301,48.19462,Україна
Зруб-комарівський,Сторожинецький район,Чернівецька область,25.57308,48.1644,Україна
Боянівка,Новоселицький район,Чернівецька область,26.16514,48.24715,Україна
Ванчинець,Новоселицький район,Чернівецька область,26.41199,48.21213,Україна
Зелений Гай,Новоселицький район,Чернівецька область,26.21389,48.22723,Україна
Маршинці,Новоселицький район,Чернівецька область,26.30299,48.21178,Україна
Негринці,Новоселицький район,Чернівецька область,26.5519,48.23444,Україна
Припруття,Новоселицький район,Чернівецька область,26.15948,48.25573,Україна
Брусенки,Кіцманський район,Чернівецька область,25.53789,48.26105,Україна
Верхні Петрівці,Сторожинецький район,Чернівецька область,25.69599,48.07033,Україна
Годилів,Сторожинецький район,Чернівецька область,25.92928,48.2456,Україна
Нова Жадова,Сторожинецький район,Чернівецька область,25.53394,48.22912,Україна
Снячів,Сторожинецький район,Чернівецька область,25.84122,48.18878,Україна
Біла Криниця,Глибоцький район,Чернівецька область,25.88345,47.97695,Україна
Горбівці,Глибоцький район,Чернівецька область,26.09699,47.99497,Україна
Грушівка,Глибоцький район,Чернівецька область,25.97717,48.18878,Україна
Карапчів,Глибоцький район,Чернівецька область,25.85461,48.09523,Україна
Кут,Глибоцький район,Чернівецька область,26.0364,48.19942,Україна
Новий Вовчинець,Глибоцький район,Чернівецька область,25.99863,47.99291,Україна
Петричанка,Глибоцький район,Чернівецька область,25.89375,48.05025,Україна
Поляна,Глибоцький район,Чернівецька область,26.11382,48.04836,Україна
Просіка,Глибоцький район,Чернівецька область,25.81822,48.07068,Україна
Просокиряни,Глибоцький район,Чернівецька область,25.87812,48.08887,Україна
Слобідка,Глибоцький район,Чернівецька область,25.98747,48.0463,Україна
Старий Вовчинець,Глибоцький район,Чернівецька область,25.94301,48.00064,Україна
Стерче,Глибоцький район,Чернівецька область,26.03211,48.03154,Україна
Байраки,Герцаївський район,Чернівецька область,26.11107,48.11617,Україна
Банчени,Герцаївський район,Чернівецька область,26.1993,48.20286,Україна
Буківка,Герцаївський район,Чернівецька область,26.0927,48.05179,Україна
Велика Буда,Герцаївський район,Чернівецька область,26.07657,48.14758,Україна
Великосілля,Герцаївський район,Чернівецька область,26.31191,48.16166,Україна
Круп'янське,Герцаївський район,Чернівецька область,26.06918,48.16114,Україна
Лунка,Герцаївський район,Чернівецька область,26.29406,48.18346,Україна
Маморниця,Герцаївський район,Чернівецька область,26.09682,48.22019,Україна
Радгоспівка,Герцаївський район,Чернівецька область,26.11141,48.22294,Україна
Могилівка,Герцаївський район,Чернівецька область,26.27432,48.14964,Україна
Підвальне,Герцаївський район,Чернівецька область,26.15055,48.13368,Україна
Заволока,Сторожинецький район,Чернівецька область,25.90113,48.26139,Україна
Старі Бросківці,Сторожинецький район,Чернівецька область,25.742,48.24011,Україна
Заболоття,Сторожинецький район,Чернівецька область,25.66715,48.21625,Україна
Луковиця,Глибоцький район,Чернівецька область,26.06506,48.20045,Україна
Годинівка,Герцаївський район,Чернівецька область,26.13098,48.18895,Україна
Нижні Петрівці,Сторожинецький район,Чернівецька область,25.71522,48.03154,Україна
Кам'янка,Глибоцький район,Чернівецька область,25.9037,48.02605,Україна
Давидівка,Сторожинецький район,Чернівецька область,25.54527,48.13608,Україна
Дубове,Сторожинецький район,Чернівецька область,25.83143,48.27101,Україна
Великий Кучурів,Сторожинецький район,Чернівецька область,25.90765,48.21436,Україна
Тисовець,Сторожинецький район,Чернівецька область,25.89701,48.17093,Україна
Глибочок,Сторожинецький район,Чернівецька область,25.76843,48.18586,Україна
Їжівці,Сторожинецький район,Чернівецька область,25.65291,48.02433,Україна
Рені,Ренійський район,Одеська область,28.28619,45.46074,Україна
Ізмаїл,м. Ізмаїл,Одеська область,28.83551,45.3471,Україна
Болград,Болградський район,Одеська область,28.60256,45.69437,Україна
Орлівка,Ренійський район,Одеська область,28.45064,45.31946,Україна
Новосільське,Ренійський район,Одеська область,28.57973,45.33646,Україна
Табаки,Болградський район,Одеська область,28.60994,45.73025,Україна
Виноградівка,Болградський район,Одеська область,28.56669,45.68218,Україна
Жовтневе,Болградський район,Одеська область,28.70487,45.63343,Україна
Владичень,Болградський район,Одеська область,28.60376,45.56545,Україна
Котловина,Ренійський район,Одеська область,28.57184,45.50949,Україна
Криничне,Болградський район,Одеська область,28.66779,45.53593,Україна
Каланчак,Ізмаїльський район,Одеська область,28.79379,45.5361,Україна
Василівка,Болградський район,Одеська область,28.83173,45.63995,Україна
Кам'янка,Ізмаїльський район,Одеська область,28.88117,45.56511,Україна
Саф'яни,Ізмаїльський район,Одеська область,28.87705,45.39997,Україна
Озерне,Ізмаїльський район,Одеська область,28.67809,45.40512,Україна
Нова Некрасівка,Ізмаїльський район,Одеська область,28.69492,45.35568,Україна
Ларжанка,Ізмаїльський район,Одеська область,28.72976,45.36014,Україна
Матроська,Ізмаїльський район,Одеська область,28.77594,45.34504,Україна
Броска,Ізмаїльський район,Одеська область,28.78487,45.36993,Україна
Плавні,Ренійський район,Одеська область,28.58008,45.3986,Україна
Долинське,Ренійський район,Одеська область,28.32825,45.47207,Україна
Коса,Болградський район,Одеська область,28.65252,45.47584,Україна
Лиманське,Ренійський район,Одеська область,28.41253,45.43207,Україна
Нагірне,Ренійський район,Одеська область,28.44858,45.4295,Україна
Новокаланчак,Ізмаїльський район,Одеська область,28.77611,45.58416,Україна
Нове Жовтневе,Болградський район,Одеська область,28.79036,45.60923,Україна
Тополине,Болградський район,Одеська область,28.62625,45.6154,Україна
Оксамитне,Болградський район,Одеська область,28.62591,45.63223,Україна
Лощинівка,Ізмаїльський район,Одеська область,28.82023,45.47464,Україна
Нові Трояни,Болградський район,Одеська область,28.85439,45.94173,Україна
Городнє,Болградський район,Одеська область,28.84667,45.89006,Україна
Оріхівка,Болградський район,Одеська область,28.90898,45.80612,Україна
Червоноармійське,Болградський район,Одеська область,28.74762,45.79256,Україна
Калчева,Болградський район,Одеська область,28.81199,45.73351,Україна
Залізничне,Болградський район,Одеська область,28.61612,45.74741,Україна
Суворове,Ізмаїльський район,Одеська область,28.99292,45.57627,Україна
Кілія,Кілійський район,Одеська область,29.25728,45.46228,Україна
Вилкове,Кілійський район,Одеська область,29.58635,45.40169,Україна
Стара Некрасівка,Ізмаїльський район,Одеська область,28.92426,45.34075,Україна
Баннівка,Болградський район,Одеська область,28.92065,45.6875,Україна
Багате,Ізмаїльський район,Одеська область,28.93713,45.40769,Україна
Утконосівка,Ізмаїльський район,Одеська область,28.95413,45.49627,Україна
Новокам'янка,Ізмаїльський район,Одеська область,28.9452,45.61781,Україна
Глибоке,Татарбунарський район,Одеська область,29.60953,45.72922,Україна
Кирнички,Ізмаїльський район,Одеська область,29.06347,45.7069,Україна
Приморське,Татарбунарський район,Одеська область,29.79595,45.693,Україна
Лиман,Татарбунарський район,Одеська область,29.75046,45.67188,Україна
Нерушай,Татарбунарський район,Одеська область,29.5122,45.6566,Україна
Старі Трояни,Кілійський район,Одеська область,29.17025,45.67188,Україна
Нова Покровка,Ізмаїльський район,Одеська область,29.0803,45.6348,Україна
Приозерне,Кілійський район,Одеська область,29.16166,45.60785,Україна
Фурманівка,Кілійський район,Одеська область,29.23222,45.63755,Україна
Дмитрівка,Кілійський район,Одеська область,29.37727,45.64184,Україна
Десантне,Кілійський район,Одеська область,29.53589,45.57335,Україна
Шевченкове,Кілійський район,Одеська область,29.33298,45.55515,Україна
Червоний Яр,Кілійський район,Одеська область,29.20939,45.58536,Україна
Муравлівка,Ізмаїльський район,Одеська область,29.15154,45.55824,Україна
Комишівка,Ізмаїльський район,Одеська область,29.11961,45.51464,Україна
Василівка,Кілійський район,Одеська область,29.16527,45.52648,Україна
Приморське,Кілійський район,Одеська область,29.60541,45.52065,Україна
Новоселівка,Кілійський район,Одеська область,29.2638,45.67772,Україна
Першотравневе,Ізмаїльський район,Одеська область,29.04579,45.48271,Україна
Трудове,Кілійський район,Одеська область,29.39667,45.61832,Україна
Струмок,Татарбунарський район,Одеська область,29.44439,45.72149,Україна
Кислиця,Ізмаїльський район,Одеська область,29.04425,45.41473,Україна
Помазани,Кілійський район,Одеська область,29.30912,45.60236,Україна
Миколаївка,Кілійський район,Одеська область,29.47203,45.62176,Україна
Новомиколаївка,Кілійський район,Одеська область,29.5019,45.60991,Україна
Мирне,Кілійський район,Одеська область,29.46121,45.57369,Україна
Ліски,Кілійський район,Одеська область,29.47804,45.46829,Україна
Дзинілор,Кілійський район,Одеська область,29.11652,45.6518,Україна
Татарбунари,Татарбунарський район,Одеська область,29.61416,45.84097,Україна
Тарутине,Тарутинський район,Одеська область,29.1481,46.18669,Україна
Березине,Тарутинський район,Одеська область,29.20303,46.22755,Україна
Сарата,Саратський район,Одеська область,29.68472,46.02001,Україна
Арциз,Арцизький район,Одеська область,29.42637,45.98654,Україна
Олександрівка,Болградський район,Одеська область,28.95069,45.88955,Україна
Виноградне,Болградський район,Одеська область,28.99704,45.80578,Україна
Голиця,Болградський район,Одеська область,28.98949,45.74964,Україна
Дмитрівка,Болградський район,Одеська область,28.98211,45.97246,Україна
Малоярославець Перший,Тарутинський район,Одеська область,29.00305,46.08576,Україна
Вільне,Тарутинський район,Одеська область,29.04699,45.98619,Україна
Новоселівка,Арцизький район,Одеська область,29.23479,45.95203,Україна
Павлівка,Арцизький район,Одеська область,29.48731,45.96542,Україна
Новоселівка,Саратський район,Одеська область,29.61502,46.00868,Україна
Зоря,Саратський район,Одеська область,29.69587,45.99169,Україна
Михайлівка,Саратський район,Одеська область,29.69965,45.94963,Україна
Сергіївка,Саратський район,Одеська область,29.95457,46.00181,Україна
Дивізія,Татарбунарський район,Одеська область,29.98375,45.9419,Україна
Зелена Балка,Арцизький район,Одеська область,29.57914,45.9292,Україна
Делень,Арцизький район,Одеська область,29.18776,45.91255,Україна
Нова Іванівка,Арцизький район,Одеська область,29.0827,45.9153,Україна
Плоцьк,Арцизький район,Одеська область,29.38637,45.87805,Україна
Зарічне,Татарбунарський район,Одеська область,29.69828,45.83633,Україна
Дмитрівка,Татарбунарський район,Одеська область,29.48439,45.83839,Україна
Виноградівка,Арцизький район,Одеська область,29.3795,45.82483,Україна
Главані,Арцизький район,Одеська область,29.19874,45.84629,Україна
Задунаївка,Арцизький район,Одеська область,29.10605,45.83307,Україна
Борисівка,Татарбунарський район,Одеська область,29.63734,45.78981,Україна
Рибальське,Татарбунарський район,Одеська область,29.83011,45.77865,Україна
Трихатки,Татарбунарський район,Одеська область,29.78085,45.73454,Україна
Баштанівка,Татарбунарський район,Одеська область,29.47872,45.76372,Україна
Спаське,Татарбунарський район,Одеська область,29.43958,45.75874,Україна
Острівне,Арцизький район,Одеська область,29.156,45.76218,Україна
Безім'янка,Татарбунарський район,Одеська область,30.01482,45.89985,Україна
Весела Балка,Татарбунарський район,Одеська область,30.04109,45.85264,Україна
Рівне,Тарутинський район,Одеська область,29.14175,46.01366,Україна
Ярове,Тарутинський район,Одеська область,29.09248,46.04645,Україна
Виноградівка,Тарутинський район,Одеська область,29.11961,46.08232,Україна
Лужанка,Тарутинський район,Одеська область,29.19067,46.04421,Україна
Садове,Арцизький район,Одеська область,29.27719,46.01932,Україна
Красне,Тарутинський район,Одеська область,29.24595,46.11786,Україна
Веселий Кут,Арцизький район,Одеська область,29.28869,46.04919,Україна
Мирнопілля,Арцизький район,Одеська область,29.39461,46.05829,Україна
Вишняки,Арцизький район,Одеська область,29.49932,46.07975,Україна
Роща,Арцизький район,Одеська область,29.34809,46.12181,Україна
Новомирне,Арцизький район,Одеська область,29.37264,46.13983,Україна
Вознесенка Перша,Арцизький район,Одеська область,29.48078,46.13005,Україна
Роза,Тарутинський район,Одеська область,29.36131,46.19614,Україна
Єлизаветівка,Тарутинський район,Одеська область,29.34654,46.16009,Україна
Перемога,Тарутинський район,Одеська область,29.34036,46.19047,Україна
Нові Каплани,Арцизький район,Одеська область,29.42791,46.18,Україна
Введенка,Саратський район,Одеська область,29.53314,46.1709,Україна
Весела Долина,Тарутинський район,Одеська область,29.31873,46.2363,Україна
Світлодолинське,Саратський район,Одеська область,29.58824,46.09159,Україна
Мирнопілля,Саратський район,Одеська область,29.64163,46.16472,Україна
Молдове,Саратський район,Одеська область,29.65193,46.21485,Україна
Надежда,Саратський район,Одеська область,29.64918,46.22738,Україна
Ярославка,Саратський район,Одеська область,29.87131,46.07889,Україна
Романівка,Білгород-дністровський район,Одеська область,29.96847,46.09692,Україна
Миколаївка-новоросійська,Саратський район,Одеська область,29.90444,46.13417,Україна
Успенівка,Саратський район,Одеська область,29.86221,46.18429,Україна
Карналіївка,Білгород-дністровський район,Одеська область,30.02701,46.21622,Україна
Трапівка,Татарбунарський район,Одеська область,29.69845,45.79496,Україна
Жовтий Яр,Татарбунарський район,Одеська область,29.9235,45.86569,Україна
Малоярославець Другий,Тарутинський район,Одеська область,29.08596,46.15288,Україна
Кочкувате,Татарбунарський район,Одеська область,29.87681,45.80286,Україна
Вишневе,Татарбунарський район,Одеська область,29.77381,45.80646,Україна
Холмське,Арцизький район,Одеська область,29.22878,45.76166,Україна
Кам'янське,Арцизький район,Одеська область,29.26226,45.81917,Україна
Прямобалка,Арцизький район,Одеська область,29.30019,45.89195,Україна
Плахтіївка,Саратський район,Одеська область,29.72008,46.09451,Україна
Крива Балка,Саратський район,Одеська область,29.89363,46.19116,Україна
Теплиця,Арцизький район,Одеська область,29.35616,45.98122,Україна
Долинівка,Арцизький район,Одеська область,29.5273,45.99443,Україна
Лиман,Татарбунарський район,Одеська область,29.96452,45.90311,Україна
Нове,Татарбунарський район,Одеська область,29.87114,45.90242,Україна
Нова Олексіївка,Татарбунарський район,Одеська область,29.61433,45.89315,Україна
Маразліївка,Татарбунарський район,Одеська область,29.89809,45.88337,Україна
Роздольне,Татарбунарський район,Одеська область,29.91921,45.88697,Україна
Царичанка,Татарбунарський район,Одеська область,29.92178,45.8535,Україна
Ройлянка,Татарбунарський район,Одеська область,29.92006,45.83633,Україна
Новоселиця,Татарбунарський район,Одеська область,29.69759,45.82346,Україна
Новохолмське,Арцизький район,Одеська область,29.18793,45.79067,Україна
Надеждівка,Арцизький район,Одеська область,29.43598,45.79857,Україна
Василівка,Арцизький район,Одеська область,29.38637,46.17124,Україна
Нова Плахтіївка,Саратський район,Одеська область,29.6521,46.11666,Україна
Нова Іванівка,Саратський район,Одеська область,29.64026,46.18961,Україна
Кам'янка,Саратський район,Одеська область,29.643,46.17897,Україна
Негрове,Саратський район,Одеська область,29.6545,46.20111,Україна
Костянтинівка,Саратський район,Одеська область,29.92693,46.05108,Україна
Великорибальське,Саратський район,Одеська область,29.8435,46.07597,Україна
Комишівка Перша,Саратський район,Одеська область,29.85003,46.21467,Україна
Над'ярне,Саратський район,Одеська область,29.88865,46.21588,Україна
Білолісся,Татарбунарський район,Одеська область,29.69725,45.89813,Україна
Розівка,Саратський район,Одеська область,29.8974,46.04593,Україна
Пасічне,Саратський район,Одеська область,29.61176,46.20249,Україна
Балабанка,Татарбунарський район,Одеська область,29.85329,45.76492,Україна
Долинка,Саратський район,Одеська область,29.64403,45.9347,Україна
Білгород-дністровський,м. Білгород-Дністровський,Одеська область,30.31677,46.18137,Україна
Сергіївка,м. Білгород-Дністровський,Одеська область,30.37205,46.02739,Україна
Затока,м. Білгород-Дністровський,Одеська область,30.45771,46.06705,Україна
Широке,Білгород-дністровський район,Одеська область,30.09052,45.96645,Україна
Благодатне,Білгород-дністровський район,Одеська область,30.17653,45.98928,Україна
Вільне,Білгород-дністровський район,Одеська область,30.28879,45.99443,Україна
Косівка,Білгород-дністровський район,Одеська область,30.32124,45.99838,Україна
Попаздра,Білгород-дністровський район,Одеська область,30.30287,45.98328,Україна
Миколаївка,Білгород-дністровський район,Одеська область,30.21772,45.90706,Україна
Базар'янка,Татарбунарський район,Одеська область,30.14666,45.88749,Україна
Тузли,Татарбунарський район,Одеська область,30.09241,45.86552,Україна
Веселе,Татарбунарський район,Одеська область,30.0864,45.90723,Україна
Новомихайлівка,Татарбунарський район,Одеська область,30.0701,45.83959,Україна
Гончарівка,Білгород-дністровський район,Одеська область,30.0701,46.23957,Україна
Андріївка,Білгород-дністровський район,Одеська область,30.0852,46.22,Україна
Молога,Білгород-дністровський район,Одеська область,30.23111,46.21622,Україна
Випасне,Білгород-дністровський район,Одеська область,30.25618,46.18721,Україна
Бритівка,Білгород-дністровський район,Одеська область,30.2833,46.1721,Україна
Дальник,Овідіопольський район,Одеська область,30.53392,46.22566,Україна
Бикоза,Білгород-дністровський район,Одеська область,30.1779,46.18978,Україна
Розкішне,Білгород-дністровський район,Одеська область,30.13155,46.17794,Україна
Монаші,Білгород-дністровський район,Одеська область,30.05362,46.16197,Україна
Вигон,Білгород-дністровський район,Одеська область,30.29308,46.14704,Україна
Олексіївка,Білгород-дністровський район,Одеська область,30.06186,46.12507,Україна
Маразліївка,Білгород-дністровський район,Одеська область,30.04932,46.09846,Україна
Польове,Білгород-дністровський район,Одеська область,30.22648,46.12558,Україна
Полянка,Білгород-дністровський район,Одеська область,30.061,46.0849,Україна
Черкеси,Білгород-дністровський район,Одеська область,30.21017,46.07666,Україна
Привітне,Білгород-дністровський район,Одеська область,30.28416,46.0873,Україна
Софіївка,Білгород-дністровський район,Одеська область,30.28948,46.04919,Україна
Авидівка,Білгород-дністровський район,Одеська область,30.20657,46.03872,Україна
Великомар'янівка,Білгород-дністровський район,Одеська область,30.06409,46.03134,Україна
Адамівка,Білгород-дністровський район,Одеська область,30.21996,46.01229,Україна
Санжійка,Овідіопольський район,Одеська область,30.60705,46.23253,Україна
Роксолани,Овідіопольський район,Одеська область,30.45393,46.17708,Україна
Шабо,Білгород-дністровський район,Одеська область,30.38544,46.12713,Україна
Садове,Білгород-дністровський район,Одеська область,30.21206,46.23424,Україна
Курортне,Білгород-дністровський район,Одеська область,30.29875,45.94208,Україна
Приморське,Білгород-дністровський район,Одеська область,30.28158,45.97092,Україна
Лебедівка,Татарбунарський район,Одеська область,30.14683,45.82586,Україна
Сухолужжя,Білгород-дністровський район,Одеська область,30.26596,46.21485,Україна
Нове,Білгород-дністровський район,Одеська область,30.16777,46.22875,Україна
Грибівка,Овідіопольський район,Одеська область,30.55916,46.20901,Україна
Салгани,Білгород-дністровський район,Одеська область,30.34493,46.14962,Україна
Абрикосове,Білгород-дністровський район,Одеська область,30.29514,46.11666,Україна
Прибережне,Білгород-дністровський район,Одеська область,30.41119,46.08044,Україна
Долинівка,Білгород-дністровський район,Одеська область,30.12091,46.03958,Україна
Чабанське,Білгород-дністровський район,Одеська область,30.34767,46.00782,Україна
Біленьке,Білгород-дністровський район,Одеська область,30.36982,46.05177,Україна
Піщанка,Піщанський район,Вінницька область,28.89422,48.20354,Україна
Ямпіль,Ямпільський район,Вінницька область,28.29186,48.24903,Україна
Пороги,Ямпільський район,Вінницька область,28.32275,48.24079,Україна
Вільшанка,Крижопільський район,Вінницька область,28.62539,48.25109,Україна
Шуми,Крижопільський район,Вінницька область,28.55759,48.2571,Україна
Біла,Ямпільський район,Вінницька область,28.22096,48.25144,Україна
Велика Кісниця,Ямпільський район,Вінницька область,28.45081,48.13934,Україна
Гальжбіївка,Ямпільський район,Вінницька область,28.2177,48.26345,Україна
Довжок,Ямпільський район,Вінницька область,28.526,48.23942,Україна
Іванків,Ямпільський район,Вінницька область,28.37734,48.21075,Україна
Придністрянське,Ямпільський район,Вінницька область,28.44395,48.19805,Україна
Слобода-підлісівська,Ямпільський район,Вінницька область,28.47313,48.22088,Україна
Верхня Слобідка,Піщанський район,Вінницька область,28.58591,48.18689,Україна
Кукули,Піщанський район,Вінницька область,28.75208,48.16801,Україна
Миролюбівка,Піщанський район,Вінницька область,28.8386,48.25865,Україна
Ставки,Піщанський район,Вінницька область,28.88083,48.26259,Україна
Студена,Піщанський район,Вінницька область,28.85473,48.14535,Україна
Трибусівка,Піщанський район,Вінницька область,28.66299,48.18518,Україна
Добрянка,Ямпільський район,Вінницька область,28.35194,48.28148,Україна
Русава,Ямпільський район,Вінницька область,28.31057,48.2789,Україна
Болган,Піщанський район,Вінницька область,28.73131,48.14363,Україна
Затишне,Піщанський район,Вінницька область,28.89439,48.15977,Україна
Дмитрашківка,Піщанський район,Вінницька область,28.77594,48.19788,Україна
Михайлівка,Ямпільський район,Вінницька область,28.09445,48.27324,Україна
Северинівка,Ямпільський район,Вінницька область,28.41459,48.2365,Україна
Одаї,Крижопільський район,Вінницька область,28.7459,48.26002,Україна
Файгород,Крижопільський район,Вінницька область,28.71225,48.242,Україна
Доярня,Крижопільський район,Вінницька область,28.68582,48.27633,Україна
Калинівка,Піщанський район,Вінницька область,28.65543,48.21693,Україна
Рудник,Крижопільський район,Вінницька область,28.59982,48.21865,Україна
Підлісівка,Ямпільський район,Вінницька область,28.47141,48.24251,Україна
Франківка,Ямпільський район,Вінницька область,28.36704,48.25315,Україна
Оксанівка,Ямпільський район,Вінницька область,28.18886,48.23238,Україна
Улянівка,Ямпільський район,Вінницька область,28.23092,48.22346,Україна
Грабарівка,Піщанський район,Вінницька область,28.64204,48.16423,Україна
Миколаївка,Піщанський район,Вінницька область,28.81594,48.19736,Україна
Трудове,Піщанський район,Вінницька область,28.80632,48.19324,Україна
Палійове,Піщанський район,Вінницька область,28.85593,48.17659,Україна
Чабанове,Піщанський район,Вінницька область,28.8422,48.17058,Україна
П'ятихатка,Піщанський район,Вінницька область,28.83362,48.16355,Україна
Червона Поляна,Піщанський район,Вінницька область,28.90366,48.10484,Україна
Цекинівка,Ямпільський район,Вінницька область,28.32001,48.15445,Україна
Загнітків,Кодимський район,Одеська область,28.88271,48.04373,Україна
Серпневе,Тарутинський район,Одеська область,29.01609,46.30342,Україна
Бородіно,Тарутинський район,Одеська область,29.24217,46.30188,Україна
Лиманське,Роздільнянський район,Одеська область,29.97877,46.68383,Україна
Сухувате,Тарутинський район,Одеська область,28.98451,46.41638,Україна
Калачівка,Тарутинський район,Одеська область,28.98914,46.38771,Україна
Підгірне,Тарутинський район,Одеська область,29.04631,46.25021,Україна
Височанське,Тарутинський район,Одеська область,29.04459,46.48624,Україна
Новоукраїнка,Тарутинський район,Одеська область,29.07944,46.49362,Україна
Нове Тарутине,Тарутинський район,Одеська область,29.12287,46.46856,Україна
Вознесенка Друга,Тарутинський район,Одеська область,29.17814,46.42101,Україна
Євгенівка,Тарутинський район,Одеська область,29.20235,46.38771,Україна
Надрічне,Тарутинський район,Одеська область,29.10416,46.37226,Україна
Іванчанка,Тарутинський район,Одеська область,29.13265,46.3417,Україна
Богданівка,Тарутинський район,Одеська область,29.27857,46.35561,Україна
Юр'ївка,Тарутинський район,Одеська область,29.29401,46.35681,Україна
Єлизаветівка,Тарутинський район,Одеська область,29.2741,46.39664,Україна
Благодатне,Тарутинський район,Одеська область,29.21608,46.45054,Україна
Петрівка,Тарутинський район,Одеська область,29.17059,46.50616,Україна
Благодатне,Саратський район,Одеська область,29.64747,46.25793,Україна
Пшеничне,Саратський район,Одеська область,29.63184,46.28471,Україна
Фараонівка,Саратський район,Одеська область,29.62051,46.32248,Україна
Старосілля,Саратський район,Одеська область,29.46877,46.32608,Україна
Миколаївка,Тарутинський район,Одеська область,29.40628,46.369,Україна
Олександрівка,Тарутинський район,Одеська область,29.45486,46.44161,Україна
Міняйлівка,Саратський район,Одеська область,29.5182,46.38273,Україна
Петропавлівка,Саратський район,Одеська область,29.5697,46.34016,Україна
Нова Царичанка,Білгород-дністровський район,Одеська область,29.87955,46.25587,Україна
Стара Царичанка,Білгород-дністровський район,Одеська область,29.86633,46.28815,Україна
Лугове,Саратський район,Одеська область,29.82582,46.25296,Україна
Петрівка,Білгород-дністровський район,Одеська область,29.95422,46.30926,Україна
Руськоіванівка,Білгород-дністровський район,Одеська область,29.7654,46.37123,Україна
Ройлянка,Саратський район,Одеська область,29.78994,46.28694,Україна
Забари,Саратський район,Одеська область,29.75287,46.3048,Україна
Ганнівка,Тарутинський район,Одеська область,29.3371,46.41037,Україна
Лісне,Тарутинський район,Одеська область,29.34774,46.46925,Україна
Удобне,Білгород-дністровський район,Одеська область,30.04314,46.38084,Україна
Козацьке,Білгород-дністровський район,Одеська область,30.04589,46.34823,Україна
Кучурган,Роздільнянський район,Одеська область,29.9774,46.72365,Україна
Крутоярівка,Білгород-дністровський район,Одеська область,29.81947,46.35595,Україна
Дальнічень,Білгород-дністровський район,Одеська область,29.68008,46.40642,Україна
Чистоводне,Білгород-дністровський район,Одеська область,29.75699,46.43904,Україна
Червоне,Тарутинський район,Одеська область,29.23325,46.41689,Україна
Старокозаче,Білгород-дністровський район,Одеська область,29.97912,46.33518,Україна
Градениці,Біляївський район,Одеська область,29.99765,46.59851,Україна
Підгірне,Білгород-дністровський район,Одеська область,30.0222,46.25999,Україна
Зеленівка,Білгород-дністровський район,Одеська область,30.00641,46.29261,Україна
Олексіївка,Тарутинський район,Одеська область,29.08339,46.44247,Україна
Булатівка,Тарутинський район,Одеська область,29.10605,46.41895,Україна
Зелена Долина,Тарутинський район,Одеська область,29.11137,46.48916,Україна
Плачинда,Тарутинський район,Одеська область,29.08442,46.47303,Україна
Кролівка,Тарутинський район,Одеська область,29.15463,46.41157,Україна
Володимирівка,Тарутинський район,Одеська область,29.21539,46.36454,Україна
Рівне,Тарутинський район,Одеська область,29.22569,46.34479,Україна
Слобідка,Тарутинський район,Одеська область,29.08905,46.39732,Україна
Ламбрівка,Тарутинський район,Одеська область,29.29007,46.32128,Україна
Скриванівка,Тарутинський район,Одеська область,29.21299,46.4435,Україна
Новосілка,Тарутинський район,Одеська область,29.19273,46.47371,Україна
Жовтневе,Тарутинський район,Одеська область,29.18003,46.48453,Україна
Семисотка,Саратський район,Одеська область,29.41641,46.3187,Україна
Новоселівка,Тарутинський район,Одеська область,29.40611,46.40711,Україна
Фуратівка,Саратський район,Одеська область,29.45915,46.3932,Україна
Володимирівка,Білгород-дністровський район,Одеська область,29.74085,46.4193,Україна
Троїцьке,Біляївський район,Одеська область,30.02117,46.541,Україна
Велика Михайлівка,Великомихайлівський район,Одеська область,29.849,47.0783,Україна
Трохимівка,Великомихайлівський район,Одеська область,29.61519,47.18799,Україна
Комарівка,Великомихайлівський район,Одеська область,29.58275,47.16001,Україна
Савчинське,Фрунзівський район,Одеська область,29.84161,47.2225,Україна
Войничеве,Фрунзівський район,Одеська область,29.85947,47.19314,Україна
Новороманівка,Великомихайлівський район,Одеська область,29.95697,47.17272,Україна
Глибокояр,Фрунзівський район,Одеська область,29.79149,47.23143,Україна
Росіянівка,Фрунзівський район,Одеська область,29.70188,47.2261,Україна
Мацкули,Великомихайлівський район,Одеська область,29.9271,47.12345,Україна
Багачеве,Великомихайлівський район,Одеська область,29.80351,47.13753,Україна
Новоолександрівка,Великомихайлівський район,Одеська область,29.56215,47.12191,Україна
Нові Бутори,Великомихайлівський район,Одеська область,29.53056,47.09135,Україна
Муратове,Великомихайлівський район,Одеська область,29.72317,47.10817,Україна
Платонівка,Великомихайлівський район,Одеська область,29.72179,47.06491,Україна
Новоборисівка,Великомихайлівський район,Одеська область,29.99199,47.10182,Україна
Поплавка,Великомихайлівський район,Одеська область,29.96023,47.08757,Україна
Новопетрівка,Великомихайлівський район,Одеська область,29.88796,47.03882,Україна
Новокрасне,Роздільнянський район,Одеська область,29.97276,46.793,Україна
Степанівка,Роздільнянський район,Одеська область,29.98701,46.79352,Україна
Розалівка,Роздільнянський район,Одеська область,29.9774,46.82957,Україна
Яковлівка,Роздільнянський район,Одеська область,29.95749,46.86218,Україна
Гребеники,Великомихайлівський район,Одеська область,29.80505,46.88948,Україна
Гаївка,Роздільнянський район,Одеська область,29.92333,46.91299,Україна
Бугай,Роздільнянський район,Одеська область,29.84934,46.92261,Україна
Слов'яносербка,Великомихайлівський район,Одеська область,29.70085,46.95745,Україна
Великоплоске,Великомихайлівський район,Одеська область,29.67064,47.01153,Україна
Новосавицьке,Великомихайлівський район,Одеська область,29.76471,46.98423,Україна
Юрківка,Великомихайлівський район,Одеська область,29.82342,46.9887,Україна
Малоплоске,Великомихайлівський район,Одеська область,29.73982,47.01273,Україна
Гіржове,Великомихайлівський район,Одеська область,29.81346,47.10302,Україна
Новоселівка,Великомихайлівський район,Одеська область,30.02735,47.19623,Україна
Мардарівка,Великомихайлівський район,Одеська область,30.01534,47.14508,Україна
Залізничне,Великомихайлівський район,Одеська область,30.03319,47.07212,Україна
Мигаєве,Великомихайлівський район,Одеська область,30.04126,46.98715,Україна
Широке,Роздільнянський район,Одеська область,30.03645,46.89617,Україна
Гетьманці,Роздільнянський район,Одеська область,30.00727,46.90922,Україна
Дружба,Роздільнянський район,Одеська область,30.0392,46.85789,Україна
Труд-куток,Роздільнянський район,Одеська область,30.01396,46.75627,Україна
Леніне,Фрунзівський район,Одеська область,29.96933,47.2304,Україна
Тростянець,Великомихайлівський район,Одеська область,29.7872,47.03401,Україна
Павлівка,Фрунзівський район,Одеська область,29.56764,47.24018,Україна
Соше-острівське,Великомихайлівський район,Одеська область,29.75252,47.18988,Україна
Парканці,Роздільнянський район,Одеська область,30.04641,46.9408,Україна
Великокомарівка,Великомихайлівський район,Одеська область,29.64832,47.08689,Україна
Грушка,Великомихайлівський район,Одеська область,29.64369,47.14422,Україна
Мар'янівка Перша,Фрунзівський район,Одеська область,29.81964,47.24447,Україна
Малорошове,Фрунзівський район,Одеська область,29.92504,47.23451,Україна
Володимирівка,Фрунзівський район,Одеська область,29.97603,47.19108,Україна
Іванівка,Великомихайлівський район,Одеська область,29.94392,47.18611,Україна
Новопавлівка,Великомихайлівський район,Одеська область,29.96161,47.15538,Україна
Дурбайли,Великомихайлівський район,Одеська область,29.91989,47.1631,Україна
Бессарабка,Великомихайлівський район,Одеська область,29.86942,47.1595,Україна
Водяне,Великомихайлівський район,Одеська область,29.85638,47.13615,Україна
Райки,Великомихайлівський район,Одеська область,29.93448,47.14388,Україна
Кучурган,Великомихайлівський район,Одеська область,29.79252,47.16036,Україна
Стоянове,Великомихайлівський район,Одеська область,29.71321,47.14044,Україна
Василівка,Великомихайлівський район,Одеська область,29.67527,47.17581,Україна
Дівоцьке,Великомихайлівський район,Одеська область,29.69914,47.08637,Україна
Покровка,Великомихайлівський район,Одеська область,29.72351,47.0898,Україна
Кістельниця,Великомихайлівський район,Одеська область,29.74308,47.0644,Україна
Новоантонівка,Великомихайлівський район,Одеська область,29.74978,47.05427,Україна
Орел,Великомихайлівський район,Одеська область,29.77604,47.02165,Україна
Три Криниці,Великомихайлівський район,Одеська область,29.97963,47.05376,Україна
Тятри,Великомихайлівський район,Одеська область,29.90805,47.08946,Україна
Вакарське,Великомихайлівський район,Одеська область,29.93586,47.06234,Україна
Полезне,Великомихайлівський район,Одеська область,29.83818,47.10646,Україна
Павлівка,Роздільнянський район,Одеська область,29.98701,46.75918,Україна
Ангелінівка,Роздільнянський район,Одеська область,29.94581,46.89257,Україна
Нове,Роздільнянський район,Одеська область,29.87011,46.88845,Україна
Плавневе,Роздільнянський район,Одеська область,29.93774,46.93943,Україна
Марківка,Роздільнянський район,Одеська область,29.94684,46.92947,Україна
Труд-гребеник,Роздільнянський район,Одеська область,29.89449,46.91128,Україна
Олег,Великомихайлівський район,Одеська область,29.74617,46.92552,Україна
Дзержинське,Великомихайлівський район,Одеська область,29.80625,46.92467,Україна
Антоно-ковач,Великомихайлівський район,Одеська область,29.76282,46.94252,Україна
Артема,Великомихайлівський район,Одеська область,29.87475,46.97737,Україна
Гірське,Великомихайлівський район,Одеська область,29.93002,46.97067,Україна
Новоселівка,Великомихайлівський район,Одеська область,29.91148,46.99144,Україна
Путилівка,Великомихайлівський район,Одеська область,29.96676,47.12946,Україна
Добрий Лук,Великомихайлівський район,Одеська область,29.97894,47.12602,Україна
Преображенка,Великомихайлівський район,Одеська область,29.95337,47.13289,Україна
Іринівка,Великомихайлівський район,Одеська область,29.98633,47.1619,Україна
Фрасине,Великомихайлівський район,Одеська область,29.78926,47.10251,Україна
Оленівка,Великомихайлівський район,Одеська область,30.00435,47.1365,Україна
Вапнярка,Роздільнянський район,Одеська область,30.03147,46.959,Україна
Петрівка,Роздільнянський район,Одеська область,30.02976,46.94286,Україна
Привілля,Великомихайлівський район,Одеська область,29.77278,47.05444,Україна
Лучинське,Роздільнянський район,Одеська область,29.94787,46.86338,Україна
Мигаї,Великомихайлівський район,Одеська область,30.00555,47.01101,Україна
Саханське,Ширяївський район,Одеська область,30.04074,47.25632,Україна
Новокостянтинівка,Роздільнянський район,Одеська область,29.9683,46.94973,Україна
Кардамичеве,Великомихайлівський район,Одеська область,29.91371,46.96175,Україна
Таїрове,Овідіопольський район,Одеська область,30.64705,46.36419,Україна
Біляївка,Біляївський район,Одеська область,30.20107,46.48247,Україна
Одеса,м. Одеса,Одеська область,30.73065,46.46891,Україна
Южне,м. Южне,Одеська область,31.10109,46.62357,Україна
Овідіополь,Овідіопольський район,Одеська область,30.44071,46.24472,Україна
Великодолинське,Овідіопольський район,Одеська область,30.58268,46.34479,Україна
Олександрівка,м. Іллічівськ,Одеська область,30.62473,46.3266,Україна
Нові Білярі,Комінтернівський район,Одеська область,30.99226,46.63319,Україна
Іллічівськ,м. Іллічівськ,Одеська область,30.65563,46.30669,Україна
Нове,Роздільнянський район,Одеська область,30.12709,46.64417,Україна
Червона Гірка,Біляївський район,Одеська область,30.21996,46.6634,Україна
Кам'янка,Біляївський район,Одеська область,30.23523,46.63662,Україна
Августівка,Біляївський район,Одеська область,30.64825,46.63988,Україна
Кагарлик,Біляївський район,Одеська область,30.19764,46.6016,Україна
Велика Балка,Біляївський район,Одеська область,30.6031,46.56143,Україна
Курган,Біляївський район,Одеська область,30.44981,46.52401,Україна
Мирне,Біляївський район,Одеська область,30.37256,46.46925,Україна
Маяки,Біляївський район,Одеська область,30.27317,46.41226,Україна
Надлиманське,Овідіопольський район,Одеська область,30.33291,46.3726,Україна
Мар'янівка,Овідіопольський район,Одеська область,30.4596,46.38582,Україна
Новоградківка,Овідіопольський район,Одеська область,30.47882,46.35801,Україна
Балка,Овідіопольський район,Одеська область,30.6546,46.38119,Україна
Доброолександрівка,Овідіопольський район,Одеська область,30.48517,46.33827,Україна
Семенівка,Білгород-дністровський район,Одеська область,30.12091,46.27888,Україна
Молодіжне,Овідіопольський район,Одеська область,30.60791,46.30909,Україна
Південне,Білгород-дністровський район,Одеська область,30.14305,46.27029,Україна
Міліардівка,Роздільнянський район,Одеська область,30.20536,46.75163,Україна
Кірове,Роздільнянський район,Одеська область,30.26562,46.72176,Україна
Світлогірське,Роздільнянський район,Одеська область,30.3657,46.73515,Україна
Новокубанка,Комінтернівський район,Одеська область,30.6649,46.7312,Україна
Благодатне,Комінтернівський район,Одеська область,30.83159,46.75197,Україна
Іллінка,Біляївський район,Одеська область,30.63829,46.68348,Україна
Вакулівка,Роздільнянський район,Одеська область,30.31918,46.69704,Україна
Щербанка,Роздільнянський район,Одеська область,30.18511,46.6943,Україна
Воронівка,Комінтернівський район,Одеська область,31.03054,46.65756,Україна
Григорівка,Комінтернівський район,Одеська область,31.00445,46.60435,Україна
Порт,Комінтернівський район,Одеська область,31.00496,46.72674,Україна
Булдинка,Комінтернівський район,Одеська область,30.97784,46.66134,Україна
Білярі,Комінтернівський район,Одеська область,31.03106,46.62392,Україна
Нова Дофінівка,Комінтернівський район,Одеська область,30.90609,46.58066,Україна
Фонтанка,Комінтернівський район,Одеська область,30.85871,46.56435,Україна
Крижанівка,Комінтернівський район,Одеська область,30.78936,46.5604,Україна
Красна Коса,Білгород-дністровський район,Одеська область,30.09138,46.33432,Україна
Веселе,Білгород-дністровський район,Одеська область,30.10666,46.31664,Україна
Миколаївка,Овідіопольський район,Одеська область,30.33119,46.30154,Україна
Яськи,Біляївський район,Одеська область,30.07713,46.51268,Україна
Холодна Балка,Біляївський район,Одеська область,30.58731,46.60417,Україна
Протопопівка,Біляївський район,Одеська область,30.6601,46.60761,Україна
Котовка,Біляївський район,Одеська область,30.71211,46.56675,Україна
Нерубайське,Біляївський район,Одеська область,30.63057,46.54667,Україна
Мале,Роздільнянський район,Одеська область,30.49908,46.74082,Україна
Нова Еметівка,Біляївський район,Одеська область,30.53787,46.72537,Україна
Єлизаветівка,Роздільнянський район,Одеська область,30.49925,46.69807,Україна
Одрадове,Роздільнянський район,Одеська область,30.445,46.68692,Україна
Чоботарівка,Біляївський район,Одеська область,30.56362,46.66889,Україна
Ковалівка,Біляївський район,Одеська область,30.60757,46.7082,Україна
Красносілка,Комінтернівський район,Одеська область,30.77219,46.62134,Україна
Нова Долина,Овідіопольський район,Одеська область,30.58405,46.40316,Україна
Малодолинське,м. Іллічівськ,Одеська область,30.62851,46.35578,Україна
Кубанка,Комінтернівський район,Одеська область,30.72619,46.70614,Україна
Кошари,Комінтернівський район,Одеська область,31.155,46.66614,Україна
Любопіль,Комінтернівський район,Одеська область,31.10264,46.72073,Україна
Секретарівка,Біляївський район,Одеська область,30.28107,46.65979,Україна
Василівка,Біляївський район,Одеська область,30.30424,46.60623,Україна
Майори,Біляївський район,Одеська область,30.28124,46.53877,Україна
Березань,Біляївський район,Одеська область,30.42852,46.56813,Україна
Червоний Розселенець,Біляївський район,Одеська область,30.44088,46.4617,Україна
Ленінське Перше,Біляївський район,Одеська область,30.36879,46.64966,Україна
Вигода,Біляївський район,Одеська область,30.39883,46.61619,Україна
Паліївка,Біляївський район,Одеська область,30.47041,46.64434,Україна
Набережне,Біляївський район,Одеська область,30.69614,46.57276,Україна
Олександрівка,Комінтернівський район,Одеська область,30.87038,46.60606,Україна
Прилиманське,Овідіопольський район,Одеська область,30.61512,46.42462,Україна
Великий Дальник,Біляївський район,Одеська область,30.5583,46.47268,Україна
Першотравневе,Комінтернівський район,Одеська область,30.91518,46.74356,Україна
Визирка,Комінтернівський район,Одеська область,31.00256,46.68674,Україна
Свердлове,Комінтернівський район,Одеська область,30.88789,46.67747,Україна
Єгорівка,Роздільнянський район,Одеська область,30.40449,46.72211,Україна
Сичавка,Комінтернівський район,Одеська область,31.10178,46.63971,Україна
Перше Травня,Роздільнянський район,Одеська область,30.33806,46.64778,Україна
Новоградениця,Роздільнянський район,Одеська область,30.32621,46.66374,Україна
Іллічівка,Комінтернівський район,Одеська область,30.81511,46.60898,Україна
Алтестове,Біляївський район,Одеська область,30.54834,46.63113,Україна
Червона Зірка,Біляївський район,Одеська область,30.44123,46.64057,Україна
Ленінське Друге,Роздільнянський район,Одеська область,30.35437,46.62134,Україна
Петрівське,Біляївський район,Одеська область,30.36312,46.58014,Україна
Важне,Біляївський район,Одеська область,30.45307,46.5695,Україна
Широка Балка,Біляївський район,Одеська область,30.35608,46.53431,Україна
Доброжанове,Біляївський район,Одеська область,30.33463,46.53843,Україна
Повстанське,Біляївський район,Одеська область,30.25858,46.52298,Україна
Жовтнева Революція,Біляївський район,Одеська область,30.57289,46.49431,Україна
Петродолинське,Овідіопольський район,Одеська область,30.4002,46.43337,Україна
Ленінталь,Овідіопольський район,Одеська область,30.46543,46.42685,Україна
Йосипівка,Овідіопольський район,Одеська область,30.43556,46.40539,Україна
Мізікевича,Овідіопольський район,Одеська область,30.6807,46.3884,Україна
Барабой,Овідіопольський район,Одеська область,30.51865,46.27922,Україна
Богатирівка,Овідіопольський район,Одеська область,30.51624,46.25467,Україна
Піонерське,Роздільнянський район,Одеська область,30.07456,46.73412,Україна
Новосільці,Роздільнянський район,Одеська область,30.17052,46.72726,Україна
Андрієво-іванове,Роздільнянський район,Одеська область,30.33566,46.75163,Україна
Кремидівка,Комінтернівський район,Одеська область,30.78592,46.73241,Україна
Нова Вільшанка,Комінтернівський район,Одеська область,30.94265,46.71627,Україна
Переможне,Комінтернівський район,Одеська область,30.79674,46.70391,Україна
Нова Ковалівка,Біляївський район,Одеська область,30.60637,46.69996,Україна
Берегове,Біляївський район,Одеська область,30.53839,46.7058,Україна
Будячки,Роздільнянський район,Одеська область,30.35797,46.69739,Україна
Виноградар,Роздільнянський район,Одеська область,30.34493,46.67713,Україна
Михайлівка,Біляївський район,Одеська область,30.26802,46.67541,Україна
Чапаєве,Біляївський район,Одеська область,30.59349,46.67593,Україна
Ранжеве,Комінтернівський район,Одеська область,31.0774,46.74494,Україна
Міщанка,Комінтернівський район,Одеська область,30.94797,46.6955,Україна
Вапнярка,Комінтернівський район,Одеська область,30.88703,46.57671,Україна
Ліски,Комінтернівський район,Одеська область,30.81305,46.56143,Україна
Болгарка,Роздільнянський район,Одеська область,30.4656,46.68983,Україна
Хоминка,Роздільнянський район,Одеська область,30.44294,46.71266,Україна
Стара Еметівка,Біляївський район,Одеська область,30.59675,46.73584,Україна
Корсунці,Комінтернівський район,Одеська область,30.77082,46.5901,Україна
Бурлача Балка,м. Іллічівськ,Одеська область,30.66971,46.33879,Україна
Кузьменка,Роздільнянський район,Одеська область,30.25755,46.73567,Україна
Миколаївка,Роздільнянський район,Одеська область,30.28828,46.64022,Україна
Дослідне,Біляївський район,Одеська область,30.3978,46.59027,Україна
Дачне,Біляївський район,Одеська область,30.54886,46.57757,Україна
Черевичне,Біляївський район,Одеська область,30.6201,46.64297,Україна
Світле,Комінтернівський район,Одеська область,30.82953,46.63936,Україна
Сухий Лиман,Овідіопольський район,Одеська область,30.64276,46.38977,Україна
Степове,Роздільнянський район,Одеська область,30.07988,46.69893,Україна
Гвардійське,Комінтернівський район,Одеська область,30.95621,46.59559,Україна
Калантаївка,Роздільнянський район,Одеська область,30.28244,46.72159,Україна
Усатове,Біляївський район,Одеська область,30.65683,46.53637,Україна
Усатове,Біляївський район,Одеська область,30.60207,46.52367,Україна
Березівка,Березівський район,Одеська область,30.90712,47.19761,Україна
Роздільна,Роздільнянський район,Одеська область,30.0507,46.85377,Україна
Іванівка,Іванівський район,Одеська область,30.4699,46.97668,Україна
Радісне,Іванівський район,Одеська область,30.34493,47.00037,Україна
Петрівка,Комінтернівський район,Одеська область,30.72893,46.90235,Україна
Цебрикове,Великомихайлівський район,Одеська область,30.10752,47.14662,Україна
Комінтернівське,Комінтернівський район,Одеська область,30.95467,46.82459,Україна
Люблине,Березанський район,Миколаївська область,31.15757,46.95522,Україна
Прогресівка,Березанський район,Миколаївська область,31.0611,46.92123,Україна
Ташине,Березанський район,Миколаївська область,31.11809,46.90956,Україна
Новопетрівка,Березанський район,Миколаївська область,31.13045,46.93685,Україна
Орджонікідзе,Ширяївський район,Одеська область,30.19781,47.24928,Україна
Журавське,Ширяївський район,Одеська область,30.09756,47.2546,Україна
Крижанівка,Ширяївський район,Одеська область,30.44071,47.23692,Україна
Анатолівка,Березівський район,Одеська область,30.53684,47.22216,Україна
Заводівка,Березівський район,Одеська область,30.81236,47.22645,Україна
Роздол,Березівський район,Одеська область,30.91621,47.22559,Україна
Зброжківка,Березівський район,Одеська область,30.8709,47.19555,Україна
Чижове,Березівський район,Одеська область,30.77047,47.22576,Україна
Червоний Агроном,Березівський район,Одеська область,30.71898,47.20018,Україна
Рівне,Березівський район,Одеська область,30.59435,47.22319,Україна
Новопетрівка Перша,Ширяївський район,Одеська область,30.36827,47.20739,Україна
Новопетрівка Друга,Ширяївський район,Одеська область,30.37685,47.19435,Україна
Розкішне,Ширяївський район,Одеська область,30.22665,47.17358,Україна
Кірове,Великомихайлівський район,Одеська область,30.08761,47.19332,Україна
Юрашеве,Великомихайлівський район,Одеська область,30.24674,47.15452,Україна
Софіївка,Ширяївський район,Одеська область,30.37325,47.17134,Україна
Новостепанівка,Ширяївський район,Одеська область,30.39385,47.17031,Україна
Новоєлизаветівка,Ширяївський район,Одеська область,30.40175,47.15263,Україна
Стара Єлизаветівка,Ширяївський район,Одеська область,30.3875,47.14353,Україна
Катерино-платонівка,Ширяївський район,Одеська область,30.47848,47.17066,Україна
Маркевичеве,Ширяївський район,Одеська область,30.53238,47.15555,Україна
Котовське,Березівський район,Одеська область,30.59572,47.16122,Україна
Данилівка,Березівський район,Одеська область,30.61993,47.16877,Україна
Вікторівка,Березівський район,Одеська область,30.95518,47.16568,Україна
Степанівка,Березівський район,Одеська область,30.95106,47.14233,Україна
Чигирин,Березівський район,Одеська область,30.73889,47.1298,Україна
Ганно-покровка,Ширяївський район,Одеська область,30.47916,47.13478,Україна
Сирітське Перше,Ширяївський район,Одеська область,30.41685,47.12671,Україна
Сирітське Друге,Ширяївський район,Одеська область,30.40226,47.11761,Україна
Чапаєве,Великомихайлівський район,Одеська область,30.26201,47.10594,Україна
Ольгинове,Великомихайлівський район,Одеська область,30.12571,47.10594,Україна
Цибулівка,Великомихайлівський район,Одеська область,30.15661,47.08877,Україна
Великозименове,Великомихайлівський район,Одеська область,30.26905,47.07384,Україна
Михайлопіль,Іванівський район,Одеська область,30.42595,47.0941,Україна
Силівка,Іванівський район,Одеська область,30.47007,47.09856,Україна
Джугастрове,Іванівський район,Одеська область,30.60894,47.08671,Україна
Балайчук,Березівський район,Одеська область,30.7073,47.09083,Україна
Карнагорове,Березівський район,Одеська область,30.87519,47.11435,Україна
Донське,Березівський район,Одеська область,30.91673,47.12019,Україна
Сахарове,Березівський район,Одеська область,30.97029,47.0941,Україна
Калинівка,Іванівський район,Одеська область,30.64138,47.05324,Україна
Козлове,Іванівський район,Одеська область,30.45376,47.07041,Україна
Марціянове,Великомихайлівський район,Одеська область,30.37342,47.05084,Україна
Козакове,Великомихайлівський район,Одеська область,30.07147,47.05633,Україна
Петрівське,Великомихайлівський район,Одеська область,30.05997,47.03813,Україна
Червонознам'янка,Іванівський район,Одеська область,30.28999,47.01427,Україна
Богунове,Іванівський район,Одеська область,30.46063,47.02835,Україна
Шерове,Іванівський район,Одеська область,30.48517,47.01204,Україна
Тарасівка,Іванівський район,Одеська область,30.56671,47.02457,Україна
Петровського,Комінтернівський район,Одеська область,30.74781,47.04534,Україна
Сербка,Комінтернівський район,Одеська область,30.76498,47.00638,Україна
Гудевичеве,Іванівський район,Одеська область,30.67143,46.99093,Україна
Баланини,Іванівський район,Одеська область,30.60551,46.97428,Україна
Бузинове,Іванівський район,Одеська область,30.48689,46.9741,Україна
Прохорове,Іванівський район,Одеська область,30.46543,47.00466,Україна
Сухомлинове,Іванівський район,Одеська область,30.3657,46.97702,Україна
Кошари,Роздільнянський район,Одеська область,30.1652,46.96501,Україна
Данилівка,Великомихайлівський район,Одеська область,30.12966,46.99213,Україна
Сухе,Роздільнянський район,Одеська область,30.09756,46.96672,Україна
Новий Гребеник,Роздільнянський район,Одеська область,30.08452,46.9202,Україна
Лозове,Роздільнянський район,Одеська область,30.22339,46.94441,Україна
Желепове,Роздільнянський район,Одеська область,30.3027,46.95454,Україна
Баранове,Іванівський район,Одеська область,30.4069,46.93857,Україна
Малинівка,Іванівський район,Одеська область,30.38647,46.9408,Україна
Верхній Куяльник,Іванівський район,Одеська область,30.50818,46.92896,Україна
Благоєве,Іванівський район,Одеська область,30.64825,46.93806,Україна
Новомиколаївка,Комінтернівський район,Одеська область,30.82455,46.96466,Україна
Капітанівка,Комінтернівський район,Одеська область,30.86369,46.9693,Україна
Олександрівка,Комінтернівський район,Одеська область,30.89853,46.96707,Україна
Петрівка,Іванівський район,Одеська область,30.95759,46.96878,Україна
Ониськове,Комінтернівський район,Одеська область,30.82523,46.92295,Україна
Улянівка,Комінтернівський район,Одеська область,30.76292,46.92261,Україна
Лізинка,Іванівський район,Одеська область,30.64482,46.90149,Україна
Адамівка,Іванівський район,Одеська область,30.50646,46.88759,Україна
Білка,Іванівський район,Одеська область,30.4244,46.88999,Україна
Новоселівка,Роздільнянський район,Одеська область,30.28759,46.92329,Україна
Старостине,Роздільнянський район,Одеська область,30.08675,46.89239,Україна
Нові Чобручі,Роздільнянський район,Одеська область,30.07439,46.86682,Україна
Бецилове,Роздільнянський район,Одеська область,30.24193,46.86716,Україна
Нижній Куяльник,Іванівський район,Одеська область,30.53719,46.88364,Україна
Старі Шомполи,Комінтернівський район,Одеська область,30.77786,46.84467,Україна
Нові Шомполи,Іванівський район,Одеська область,30.73048,46.85429,Україна
Руська Слобідка,Іванівський район,Одеська область,30.60156,46.83592,Україна
Новоукраїнка,Роздільнянський район,Одеська область,30.28673,46.81497,Україна
Старокостянтинівка,Роздільнянський район,Одеська область,30.25978,46.84296,Україна
Петро-євдокіївка,Роздільнянський район,Одеська область,30.18442,46.82287,Україна
Володимирівка,Роздільнянський район,Одеська область,30.07387,46.81721,Україна
Капаклієве,Роздільнянський район,Одеська область,30.20571,46.80708,Україна
Новодмитрівка,Роздільнянський район,Одеська область,30.30682,46.78545,Україна
Єреміївка,Роздільнянський район,Одеська область,30.37428,46.79644,Україна
Бурдівка,Роздільнянський район,Одеська область,30.43676,46.80691,Україна
Созонівка,Іванівський район,Одеська область,30.6637,46.78373,Україна
Покровка,Роздільнянський район,Одеська область,30.13945,46.78013,Україна
Семихатки,Березівський район,Одеська область,31.03397,47.15555,Україна
Садове,Березівський район,Одеська область,31.08805,47.16671,Україна
Широке,Комінтернівський район,Одеська область,31.0726,46.87008,Україна
Дмитрівка,Комінтернівський район,Одеська область,31.03003,46.79266,Україна
Бутівка,Комінтернівський район,Одеська область,31.03861,46.76296,Україна
Виноградне,Березівський район,Одеська область,31.09955,47.22645,Україна
Іванівка,Веселинівський район,Миколаївська область,31.15929,47.02509,Україна
Кордон,Комінтернівський район,Одеська область,31.0968,46.82785,Україна
Пшонянове,Комінтернівський район,Одеська область,31.12633,46.79523,Україна
Щорсове,Іванівський район,Одеська область,30.45908,46.84021,Україна
Маринівка,Біляївський район,Одеська область,30.53135,46.75815,Україна
Богнатове,Роздільнянський район,Одеська область,30.48655,46.77772,Україна
Павлинка,Іванівський район,Одеська область,30.6764,46.81223,Україна
Червоне,Березівський район,Одеська область,30.91209,47.07178,Україна
Гуляївка,Березівський район,Одеська область,30.97836,47.06972,Україна
Вовкове,Березівський район,Одеська область,30.96445,47.05461,Україна
Софіївка,Березівський район,Одеська область,31.01389,47.03161,Україна
Мар'янівка,Комінтернівський район,Одеська область,31.1162,46.83025,Україна
Шутове,Березівський район,Одеська область,30.54148,47.20138,Україна
Розквіт,Березівський район,Одеська область,30.611,47.11847,Україна
Нейкове,Березівський район,Одеська область,30.69014,47.13667,Україна
Маринове,Березівський район,Одеська область,30.77339,47.09461,Україна
Чорногірка,Березівський район,Одеська область,30.8551,47.04964,Україна
Люботаївка,Іванівський район,Одеська область,30.56809,47.05358,Україна
Першотравневе,Великомихайлівський район,Одеська область,30.06546,47.00054,Україна
Наливайкове,Великомихайлівський район,Одеська область,30.10237,47.03213,Україна
Благоєве,Великомихайлівський район,Одеська область,30.06924,46.97771,Україна
Каїри,Комінтернівський район,Одеська область,30.96411,46.93685,Україна
Шаманівка,Іванівський район,Одеська область,30.72361,46.78888,Україна
Великі Ламзаки,Комінтернівський район,Одеська область,30.79159,46.80124,Україна
Буцинівка,Роздільнянський район,Одеська область,30.21961,46.76502,Україна
Северинівка,Іванівський район,Одеська область,30.58045,46.82716,Україна
Новоселівка,Березівський район,Одеська область,30.823,47.16173,Україна
Веселе,Березівський район,Одеська область,30.4917,47.2352,Україна
Кринички,Березівський район,Одеська область,30.57306,47.13941,Україна
Понятівка,Роздільнянський район,Одеська область,30.16726,46.90458,Україна
Якова,Комінтернівський район,Одеська область,30.77734,46.88827,Україна
Кірове,Комінтернівський район,Одеська область,30.86111,46.89445,Україна
Нове Селище,Комінтернівський район,Одеська область,30.93166,46.88484,Україна
Улянівка,Іванівський район,Одеська область,30.86214,46.84914,Україна
Жовтень,Ширяївський район,Одеська область,30.33789,47.22456,Україна
Привільне,Великомихайлівський район,Одеська область,30.07164,47.21735,Україна
Улянове,Веселинівський район,Миколаївська область,30.949,47.24155,Україна
Травневе,Березівський район,Одеська область,30.98969,47.25855,Україна
Жовтнівка,Березівський район,Одеська область,30.79176,47.23022,Україна
Новоукраїнка,Ширяївський район,Одеська область,30.45359,47.2007,Україна
Косівка,Березівський район,Одеська область,30.94608,47.12723,Україна
Шевченкове,Березівський район,Одеська область,30.75554,47.14989,Україна
Воробйове,Великомихайлівський район,Одеська область,30.24622,47.12688,Україна
Малоцебрикове,Великомихайлівський район,Одеська область,30.14237,47.11006,Україна
Поліно-осипенкове,Великомихайлівський район,Одеська область,30.16468,47.0632,Україна
Марціянове,Іванівський район,Одеська область,30.27969,47.07676,Україна
Донська Балка,Березівський район,Одеська область,30.94368,47.09169,Україна
Мар'янівка,Березівський район,Одеська область,30.96428,47.12225,Україна
Конопляне,Іванівський район,Одеська область,30.47831,47.05067,Україна
Вовкове,Іванівський район,Одеська область,30.6649,47.01393,Україна
Грекова,Комінтернівський район,Одеська область,30.7394,47.02526,Україна
Причепівка,Іванівський район,Одеська область,30.34012,46.97582,Україна
Незаможник,Великомихайлівський район,Одеська область,30.05241,46.98372,Україна
Шевченкове,Роздільнянський район,Одеська область,30.09687,46.94097,Україна
Слобідка,Роздільнянський район,Одеська область,30.07971,46.92844,Україна
Веселе,Роздільнянський район,Одеська область,30.31729,46.91213,Україна
Велізарове,Роздільнянський район,Одеська область,30.07044,46.88347,Україна
Матишівка,Роздільнянський район,Одеська область,30.05224,46.83523,Україна
Бакалове,Роздільнянський район,Одеська область,30.11782,46.88192,Україна
Балкове,Роздільнянський район,Одеська область,30.16417,46.85463,Україна
Поташенкове,Роздільнянський район,Одеська область,30.33085,46.87162,Україна
Ставки,Комінтернівський район,Одеська область,30.81305,46.87677,Україна
Зоринове,Комінтернівський район,Одеська область,30.94849,46.85188,Україна
Касяни,Комінтернівський район,Одеська область,30.86523,46.86441,Україна
Леніна,Іванівський район,Одеська область,30.68962,46.84656,Україна
Шеметове,Роздільнянський район,Одеська область,30.35505,46.83077,Україна
Кам'янка,Роздільнянський район,Одеська область,30.10941,46.79867,Україна
Карпівка,Роздільнянський район,Одеська область,30.25017,46.78888,Україна
Вовківське,Комінтернівський район,Одеська область,30.88102,46.82562,Україна
Степанівка,Комінтернівський район,Одеська область,30.89819,46.77875,Україна
Нове,Комінтернівський район,Одеська область,30.83244,46.78579,Україна
Степове,Комінтернівський район,Одеська область,30.75657,46.78167,Україна
Василівка,Іванівський район,Одеська область,30.67108,46.77189,Україна
Антонівка,Роздільнянський район,Одеська область,30.09756,46.7712,Україна
Івано-миколаївка,Роздільнянський район,Одеська область,30.05018,46.75987,Україна
Зоря Труда,Комінтернівський район,Одеська область,30.94986,46.76056,Україна
Червоноармійське,Березівський район,Одеська область,31.03363,47.19486,Україна
Одрадна Балка,Березівський район,Одеська область,31.01526,47.06028,Україна
Калинівка,Комінтернівський район,Одеська область,31.03054,46.88261,Україна
Червона Нива,Комінтернівський район,Одеська область,31.07191,46.84742,Україна
Улянівка,Березівський район,Одеська область,31.12804,47.11624,Україна
Петрівка,Комінтернівський район,Одеська область,31.14538,47.00397,Україна
Маслове,Іванівський район,Одеська область,30.44672,46.88312,Україна
Блонське,Іванівський район,Одеська область,30.44123,46.86338,Україна
Жовте,Іванівський район,Одеська область,30.4735,46.85188,Україна
Черняхівське,Іванівський район,Одеська область,30.49067,46.83283,Україна
Златоустове,Березівський район,Одеська область,31.02179,46.99041,Україна
Надія,Роздільнянський район,Одеська область,30.0634,46.96209,Україна
Благоєве,Комінтернівський район,Одеська область,30.79931,46.77051,Україна
Малозименове,Великомихайлівський район,Одеська область,30.20245,47.04998,Україна
Новоподільське,Березівський район,Одеська область,30.85064,47.1401,Україна
Кінне,Комінтернівський район,Одеська область,30.90609,46.7633,Україна
Ставкове,Березівський район,Одеська область,30.63829,47.1825,Україна
Онорівка,Березівський район,Одеська область,30.65237,47.12946,Україна
Новакове,Іванівський район,Одеська область,30.58491,47.11916,Україна
Бринівка,Роздільнянський район,Одеська область,30.39093,46.75421,Україна
Олександрівка,Роздільнянський район,Одеська область,30.36106,46.75609,Україна
Шевченкове-кут,Комінтернівський район,Одеська область,30.90746,46.8742,Україна
Сокорове,Великомихайлівський район,Одеська область,30.06065,47.23709,Україна
Новосвітівка,Ширяївський район,Одеська область,30.22974,47.20791,Україна
Ананьїв,Ананьївський район,Одеська область,29.95937,47.72118,Україна
Котовськ,м. Котовськ,Одеська область,29.52799,47.76066,Україна
Затишшя,Фрунзівський район,Одеська область,29.86307,47.33477,Україна
Красні Окни,Красноокнянський район,Одеська область,29.4595,47.53956,Україна
Фрунзівка,Фрунзівський район,Одеська область,29.75012,47.33442,Україна
Володимирівка,Фрунзівський район,Одеська область,29.92487,47.30387,Україна
Краснопіль,Фрунзівський район,Одеська область,29.80522,47.29803,Україна
Йосипівка,Фрунзівський район,Одеська область,29.60747,47.32687,Україна
Самійлівка,Фрунзівський район,Одеська область,29.6176,47.28756,Україна
Унтилівка,Фрунзівський район,Одеська область,29.66652,47.26953,Україна
Парканівка,Фрунзівський район,Одеська область,29.61554,47.2637,Україна
Качулове,Ширяївський район,Одеська область,30.02186,47.33854,Україна
Боярка,Ананьївський район,Одеська область,30.0016,47.65182,Україна
Новоіванівка,Ананьївський район,Одеська область,30.00486,47.56033,Україна
Самійлівка,Ширяївський район,Одеська область,30.02066,47.3945,Україна
Нестоїта,Котовський район,Одеська область,29.35581,47.76684,Україна
Любомирка,Котовський район,Одеська область,29.48353,47.76804,Україна
Чапаєвка,Котовський район,Одеська область,29.59082,47.73079,Україна
Олександрівка,Котовський район,Одеська область,29.60833,47.76667,Україна
Точилове,Ананьївський район,Одеська область,29.74754,47.77199,Україна
Ананьїв,Ананьївський район,Одеська область,29.93483,47.71826,Україна
Миколаївка,Котовський район,Одеська область,29.44525,47.72787,Україна
Станіславка,Котовський район,Одеська область,29.25573,47.72461,Україна
Стара Кульна,Котовський район,Одеська область,29.31599,47.69577,Україна
Нова Кульна,Котовський район,Одеська область,29.34792,47.72306,Україна
Олексіївка,Котовський район,Одеська область,29.42705,47.71036,Україна
Куйбишевське,Котовський район,Одеська область,29.66961,47.70332,Україна
Новий Мир,Котовський район,Одеська область,29.80333,47.67792,Україна
Павлівка,Котовський район,Одеська область,29.80539,47.65079,Україна
Федорівка,Красноокнянський район,Одеська область,29.69673,47.65165,Україна
Розалівка,Котовський район,Одеська область,29.63116,47.68066,Україна
Новоселівка,Котовський район,Одеська область,29.61657,47.64908,Україна
Коси-слобідка,Котовський район,Одеська область,29.4643,47.65268,Україна
Дігори,Красноокнянський район,Одеська область,29.29693,47.62779,Україна
Чорна,Красноокнянський район,Одеська область,29.33985,47.61886,Україна
Ставрове,Красноокнянський район,Одеська область,29.55288,47.61268,Україна
Новоселівка,Ананьївський район,Одеська область,29.92607,47.63689,Україна
Пасицели,Ананьївський район,Одеська область,29.93774,47.61114,Україна
Бондарі,Ананьївський район,Одеська область,29.97791,47.59981,Україна
Долинське,Ананьївський район,Одеська область,29.92075,47.53183,Україна
Велика Кіндратівка,Котовський район,Одеська область,29.82908,47.59724,Україна
Мала Кіндратівка,Котовський район,Одеська область,29.73244,47.59106,Україна
Петрівка,Фрунзівський район,Одеська область,29.67545,47.6108,Україна
Федорівка,Котовський район,Одеська область,29.62978,47.60101,Україна
Нова Волярка,Красноокнянський район,Одеська область,29.43615,47.61886,Україна
Флора,Красноокнянський район,Одеська область,29.48061,47.59106,Україна
Топали,Красноокнянський район,Одеська область,29.2911,47.60136,Україна
Федосіївка,Красноокнянський район,Одеська область,29.18226,47.53956,Україна
Нагірне,Красноокнянський район,Одеська область,29.5903,47.57252,Україна
Антонівка,Красноокнянський район,Одеська область,29.61433,47.54471,Україна
Перешори,Котовський район,Одеська область,29.70171,47.54934,Україна
Мардарівка,Котовський район,Одеська область,29.7345,47.54007,Україна
Новозаріцьке,Фрунзівський район,Одеська область,29.8011,47.50694,Україна
Олександрівка,Красноокнянський район,Одеська область,29.54704,47.54436,Україна
Новосамарка,Красноокнянський район,Одеська область,29.53056,47.50814,Україна
Галочі,Красноокнянський район,Одеська область,29.36216,47.51947,Україна
Омелянівка,Красноокнянський район,Одеська область,29.27101,47.53097,Україна
Новокрасне,Красноокнянський район,Одеська область,29.16098,47.53183,Україна
Степанівка,Красноокнянський район,Одеська область,29.25041,47.50917,Україна
Самарка,Красноокнянський район,Одеська область,29.31032,47.49304,Україна
Довжанка,Красноокнянський район,Одеська область,29.39495,47.48239,Україна
Первомайське,Фрунзівський район,Одеська область,29.66171,47.49407,Україна
Мар'янівка,Фрунзівський район,Одеська область,29.71682,47.49287,Україна
Дементівка,Фрунзівський район,Одеська область,29.72008,47.45664,Україна
Перше Травня,Фрунзівський район,Одеська область,29.76488,47.48514,Україна
Бірносове,Фрунзівський район,Одеська область,29.81192,47.46832,Україна
Перехрестове,Фрунзівський район,Одеська область,29.79647,47.43639,Україна
Кошарка,Фрунзівський район,Одеська область,29.6018,47.47244,Україна
Маяки,Красноокнянський район,Одеська область,29.56369,47.44085,Україна
Новомихайлівка,Красноокнянський район,Одеська область,29.52971,47.46591,Україна
Артирівка,Красноокнянський район,Одеська область,29.35856,47.47227,Україна
Цеханівка,Красноокнянський район,Одеська область,29.1984,47.45424,Україна
Будаївці,Красноокнянський район,Одеська область,29.41177,47.42454,Україна
Оленівка,Фрунзівський район,Одеська область,29.45486,47.43536,Україна
Тригради,Красноокнянський район,Одеська область,29.46533,47.40377,Україна
Новосеменівка,Красноокнянський район,Одеська область,29.53983,47.41373,Україна
Карабанове,Фрунзівський район,Одеська область,29.64506,47.42763,Україна
Давидівка,Фрунзівський район,Одеська область,29.72574,47.41201,Україна
Новопавлівка,Фрунзівський район,Одеська область,29.74051,47.39605,Україна
Машенька,Ширяївський район,Одеська область,29.90822,47.37854,Україна
Гедеримове Перше,Фрунзівський район,Одеська область,29.83973,47.3679,Україна
Стоянове,Фрунзівський район,Одеська область,29.7575,47.35966,Україна
Гулянка,Красноокнянський район,Одеська область,29.39152,47.39879,Україна
Нестерове,Красноокнянський район,Одеська область,29.40285,47.36172,Україна
Римарівка,Красноокнянський район,Одеська область,29.4286,47.34369,Україна
Василівка,Фрунзівський район,Одеська область,29.61416,47.36189,Україна
Малаївці,Красноокнянський район,Одеська область,29.4207,47.48411,Україна
Липецьке,Котовський район,Одеська область,29.69759,47.73611,Україна
Гандрабури,Ананьївський район,Одеська область,29.86771,47.71809,Україна
Гавиноси,Красноокнянський район,Одеська область,29.29607,47.66058,Україна
Вишневе,Котовський район,Одеська область,29.73381,47.68427,Україна
Новоолександрівка,Любашівський район,Одеська область,30.04778,47.53321,Україна
Коханівка,Ананьївський район,Одеська область,30.00761,47.61423,Україна
Володимирівка,Красноокнянський район,Одеська область,29.65897,47.5387,Україна
Онилове,Фрунзівський район,Одеська область,29.89706,47.44961,Україна
Никомаврівка,Ширяївський район,Одеська область,29.9968,47.29889,Україна
Нова Григорівка,Фрунзівський район,Одеська область,29.90547,47.29786,Україна
Дружелюбівка,Фрунзівський район,Одеська область,29.91612,47.27159,Україна
Весела Балка,Фрунзівський район,Одеська область,29.87629,47.28275,Україна
Єлизаветівка,Фрунзівський район,Одеська область,29.78016,47.31382,Україна
Загір'я,Фрунзівський район,Одеська область,29.82805,47.3315,Україна
Андрусова,Фрунзівський район,Одеська область,29.87183,47.30026,Україна
Богданове Перше,Фрунзівський район,Одеська область,29.83458,47.26421,Україна
Садове,Красноокнянський район,Одеська область,29.46293,47.32824,Україна
Галупове,Ширяївський район,Одеська область,30.03027,47.30198,Україна
Козаче,Ананьївський район,Одеська область,30.01465,47.58659,Україна
Шевченкове,Ананьївський район,Одеська область,30.04006,47.5629,Україна
Валентинівка,Ширяївський район,Одеська область,30.0416,47.40995,Україна
Вестерничани,Котовський район,Одеська область,29.53915,47.7162,Україна
Куяльник,Котовський район,Одеська область,29.55391,47.72118,Україна
Глибочок,Котовський район,Одеська область,29.49143,47.72873,Україна
Ясинове,Котовський район,Одеська область,29.31822,47.74589,Україна
Падрецеве,Котовський район,Одеська область,29.30466,47.71688,Україна
Коси,Котовський район,Одеська область,29.49572,47.6786,Україна
Гертопи,Котовський район,Одеська область,29.53915,47.69749,Україна
Соболівка,Котовський район,Одеська область,29.56558,47.69337,Україна
Андріївка,Котовський район,Одеська область,29.62824,47.70744,Україна
Мала Олександрівка,Котовський район,Одеська область,29.60781,47.70521,Україна
Кирилівка,Котовський район,Одеська область,29.81209,47.65869,Україна
Єфросинівка,Котовський район,Одеська область,29.78651,47.66659,Україна
Чапаєвка,Котовський район,Одеська область,29.77072,47.67723,Україна
Грекове Друге,Котовський район,Одеська область,29.72866,47.66539,Україна
Грекове Перше,Котовський район,Одеська область,29.70497,47.67929,Україна
Чубівка,Котовський район,Одеська область,29.58326,47.64994,Україна
Сагайдак,Красноокнянський район,Одеська область,29.27616,47.62659,Україна
Василівка,Красноокнянський район,Одеська область,29.59562,47.6247,Україна
Поплавка,Котовський район,Одеська область,29.75338,47.62436,Україна
Оброчне,Котовський район,Одеська область,29.84642,47.6362,Україна
Калини,Ананьївський район,Одеська область,29.89294,47.64427,Україна
Благодатне,Ананьївський район,Одеська область,29.97534,47.63655,Україна
Мала Петрівка,Котовський район,Одеська область,29.76952,47.58573,Україна
Гор'ївка,Котовський район,Одеська область,29.64661,47.61131,Україна
Степанівка,Котовський район,Одеська область,29.65622,47.59586,Україна
Калістратівка,Красноокнянський район,Одеська область,29.61914,47.61423,Україна
Волярка,Красноокнянський район,Одеська область,29.47975,47.61423,Україна
Дем'янівка,Красноокнянський район,Одеська область,29.56301,47.57612,Україна
Топик,Котовський район,Одеська область,29.75836,47.52891,Україна
Федосіївка,Фрунзівський район,Одеська область,29.77432,47.5217,Україна
Петрівка,Фрунзівський район,Одеська область,29.73913,47.51793,Україна
Іванівка,Красноокнянський район,Одеська область,29.5443,47.52016,Україна
Ткаченка,Красноокнянський район,Одеська область,29.30569,47.47656,Україна
Одаї,Красноокнянський район,Одеська область,29.42911,47.50402,Україна
Червоний Орач,Красноокнянський район,Одеська область,29.44902,47.5102,Україна
Петрівка,Котовський район,Одеська область,29.47889,47.48892,Україна
Улянівка,Красноокнянський район,Одеська область,29.71081,47.47415,Україна
Красне,Ананьївський район,Одеська область,29.96143,47.49132,Україна
Мала Топорівка,Фрунзівський район,Одеська область,29.93036,47.4345,Україна
Перехрестове Перше,Фрунзівський район,Одеська область,29.77312,47.44343,Україна
Кримпулька,Фрунзівський район,Одеська область,29.64506,47.4563,Україна
