city,district,region,latitude,longitude
Виноградів,Виноградівський,Закарпатська,23.04674,48.14072
Вилок,Виноградівський,Закарпатська,22.83835,48.11033
Королево,Виноградівський,Закарпатська,23.14631,48.14724
Берегове,Берегівський,Закарпатська,22.64591,48.20543
Неветленфолу,Виноградівський,Закарпатська,22.99593,48.01609
Берегуйфалу,Берегівський,Закарпатська,22.80779,48.2765
Хмільник,Іршавський,Закарпатська,22.90546,48.27976
Кам'янське,Іршавський,Закарпатська,22.93842,48.27976
Великі Береги,Берегівський,Закарпатська,22.75045,48.23152
Велика Бийгань,Берегівський,Закарпатська,22.57485,48.248
Дийда,Берегівський,Закарпатська,22.57433,48.21899
Чома,Берегівський,Закарпатська,22.63304,48.13539
Бадалово,Берегівський,Закарпатська,22.63578,48.10982
Вари,Берегівський,Закарпатська,22.71046,48.12509
Боржава,Берегівський,Закарпатська,22.72162,48.15634
Мужієво,Берегівський,Закарпатська,22.70582,48.1802
Бене,Берегівський,Закарпатська,22.75698,48.16629
Косонь,Берегівський,Закарпатська,22.4552,48.25573
Запсонь,Берегівський,Закарпатська,22.46996,48.27993
Шаланки,Виноградівський,Закарпатська,22.88384,48.22775
Пушкіно,Виноградівський,Закарпатська,22.85997,48.17299
Вербовець,Виноградівський,Закарпатська,22.90873,48.16801
Підвиноградів,Виноградівський,Закарпатська,23.00125,48.13728
Нове Село,Виноградівський,Закарпатська,22.89036,48.11806
Фанчиково,Виноградівський,Закарпатська,22.9434,48.11376
Тросник,Виноградівський,Закарпатська,22.95044,48.09986
Ботар,Виноградівський,Закарпатська,22.97018,48.02656
Великі Ком'яти,Виноградівський,Закарпатська,22.97894,48.23856
Вільхівка,Іршавський,Закарпатська,23.07386,48.26345
Боржавське,Виноградівський,Закарпатська,23.05567,48.2547
Великий Раковець,Іршавський,Закарпатська,23.16759,48.27083
Рокосово,Хустський,Закарпатська,23.17909,48.20869
Велика Копаня,Виноградівський,Закарпатська,23.12794,48.19153
Букове,Виноградівський,Закарпатська,23.07009,48.18106
Чепа,Виноградівський,Закарпатська,23.01842,48.06913
Чорнотисів,Виноградівський,Закарпатська,23.05361,48.07823
Дюла,Виноградівський,Закарпатська,23.07781,48.03411
Сасово,Виноградівський,Закарпатська,23.07541,48.09437
Теково,Виноградівський,Закарпатська,23.09927,48.12355
Хижа,Виноградівський,Закарпатська,23.20656,48.10896
Черна,Виноградівський,Закарпатська,23.19111,48.13694
Фертешолмаш,Виноградівський,Закарпатська,22.92692,47.9809
Тисобикень,Виноградівський,Закарпатська,22.89602,48.07239
Гудя,Виноградівський,Закарпатська,23.12536,48.11514
Новоселиця,Виноградівський,Закарпатська,23.22579,48.12939
Кривий,Хустський,Закарпатська,23.23351,48.17264
Нижні Ремети,Берегівський,Закарпатська,22.8265,48.25745
Верхні Ремети,Берегівський,Закарпатська,22.86135,48.26706
Заріччя,Іршавський,Закарпатська,22.99095,48.27959
Онок,Виноградівський,Закарпатська,23.004,48.22346
Перехрестя,Виноградівський,Закарпатська,22.8368,48.13728
Оросієво,Берегівський,Закарпатська,22.81929,48.16286
Чорний Потік,Виноградівський,Закарпатська,22.90667,48.18088
Матійово,Виноградівський,Закарпатська,22.91199,48.13179
Карачин,Виноградівський,Закарпатська,22.86959,48.13179
Затисівка,Виноградівський,Закарпатська,22.98924,48.06295
Форголань,Виноградівський,Закарпатська,22.95611,48.05214
Велика Паладь,Виноградівський,Закарпатська,22.88229,48.0003
Гребля,Іршавський,Закарпатська,23.04932,48.28302
Нижнє Болотне,Іршавський,Закарпатська,23.09704,48.2662
Малий Раковець,Іршавський,Закарпатська,23.20656,48.26414
Заболотне,Іршавський,Закарпатська,23.11661,48.24217
Вертеп,Хустський,Закарпатська,23.1336,48.22346
Мала Копаня,Виноградівський,Закарпатська,23.09481,48.16938
Холмовець,Виноградівський,Закарпатська,23.0967,48.05797
Чертіж,Хустський,Закарпатська,23.24295,48.19067
Гетиня,Виноградівський,Закарпатська,23.01687,48.0887
Дротинці,Виноградівський,Закарпатська,22.987,48.10484
Пийтерфолво,Виноградівський,Закарпатська,22.9343,48.06175
Оклі,Виноградівський,Закарпатська,23.01601,48.00218
Оклі Гедь,Виноградівський,Закарпатська,23.06202,48.01283
Нове Клинове,Виноградівський,Закарпатська,23.03867,48.01746
Мала Бийгань,Берегівський,Закарпатська,22.57828,48.27169
Астей,Берегівський,Закарпатська,22.5975,48.16904
Велика Бакта,Берегівський,Закарпатська,22.66394,48.1608
Геча,Берегівський,Закарпатська,22.65793,48.13969
Квасово,Берегівський,Закарпатська,22.77037,48.18621
Кідьош,Берегівський,Закарпатська,22.69758,48.21813
Затишне,Берегівський,Закарпатська,22.66909,48.23032
Попово,Берегівський,Закарпатська,22.42207,48.26946
Мале Попово,Берегівський,Закарпатська,22.38756,48.26259
Гетен,Берегівський,Закарпатська,22.38344,48.27616
Галабор,Берегівський,Закарпатська,22.67801,48.10106
Руська Долина,Виноградівський,Закарпатська,22.9283,48.12698
Олешник,Виноградівський,Закарпатська,22.9549,48.16698
Веряця,Виноградівський,Закарпатська,23.16038,48.16578
Горбки,Виноградівський,Закарпатська,23.1815,48.15565
Притисянське,Виноградівський,Закарпатська,22.91697,48.11273
Вербове,Виноградівський,Закарпатська,22.91285,48.11874
Балажер,Берегівський,Закарпатська,22.60866,48.24646
Мочола,Берегівський,Закарпатська,22.62823,48.15754
Гуняді,Берегівський,Закарпатська,22.60798,48.14552
Яноші,Берегівський,Закарпатська,22.63064,48.24474
Широке,Виноградівський,Закарпатська,23.11283,48.22208
Тячів,Тячівський,Закарпатська,23.57838,48.01163
Солотвино,Тячівський,Закарпатська,23.88119,47.9579
Буштино,Тячівський,Закарпатська,23.48534,48.0475
Тересва,Тячівський,Закарпатська,23.69957,47.99789
Великий Бичків,Рахівський,Закарпатська,24.01543,47.96511
Вишково,Хустський,Закарпатська,23.42972,48.05265
Дубове,Тячівський,Закарпатська,23.88445,48.19359
Рахів,Рахівський,Закарпатська,24.20357,48.05574
Ясіня,Рахівський,Закарпатська,24.36115,48.27255
Кобилецька Поляна,Рахівський,Закарпатська,24.0719,48.05746
Хуст,Хустський,Закарпатська,23.29067,48.17814
Богдан,Рахівський,Закарпатська,24.34296,48.03583
Велятин,Хустський,Закарпатська,23.3135,48.1093
Руське Поле,Тячівський,Закарпатська,23.53357,48.05712
Стеблівка,Хустський,Закарпатська,23.42182,48.09059
Новобарово,Тячівський,Закарпатська,23.50697,48.0978
Сокирниця,Хустський,Закарпатська,23.39985,48.12406
Данилово,Хустський,Закарпатська,23.45873,48.14741
Боронява,Хустський,Закарпатська,23.38543,48.15754
Нижнє Селище,Хустський,Закарпатська,23.44757,48.1996
Копашново,Хустський,Закарпатська,23.48242,48.21556
Дулово,Тячівський,Закарпатська,23.58713,48.1426
Угля,Тячівський,Закарпатська,23.62988,48.15205
Кричово,Тячівський,Закарпатська,23.56842,48.1917
Чумальово,Тячівський,Закарпатська,23.5437,48.18947
Золотарьово,Хустський,Закарпатська,23.50164,48.18071
Жовтневе,Хустський,Закарпатська,23.54439,48.22328
Кошельово,Хустський,Закарпатська,23.33204,48.23788
Широкий Луг,Тячівський,Закарпатська,23.75433,48.21539
Красна,Тячівський,Закарпатська,23.9459,48.23358
Солоне,Тячівський,Закарпатська,23.85853,48.12527
Терново,Тячівський,Закарпатська,23.73785,48.07411
Грушово,Тячівський,Закарпатська,23.76257,48.00699
Нижня Апша,Тячівський,Закарпатська,23.83827,47.99738
Глибокий Потік,Тячівський,Закарпатська,23.89389,48.05729
Кічерели,Хустський,Закарпатська,23.62284,48.24886
Тарасівка,Тячівський,Закарпатська,23.81441,48.20749
Теребля,Тячівський,Закарпатська,23.59297,48.11136
Костилівка,Рахівський,Закарпатська,24.20374,47.99274
Видричка,Рахівський,Закарпатська,24.33678,48.05385
Вільховатий,Рахівський,Закарпатська,24.17044,48.01197
Луг,Рахівський,Закарпатська,24.05439,47.96099
Хмелів,Рахівський,Закарпатська,24.15619,47.91807
Ділове,Рахівський,Закарпатська,24.1749,47.93575
Середнє Водяне,Рахівський,Закарпатська,23.8999,47.97953
Іза,Хустський,Закарпатська,23.32878,48.21384
Драгово,Хустський,Закарпатська,23.54645,48.2365
Липча,Хустський,Закарпатська,23.38183,48.26328
Горінчово,Хустський,Закарпатська,23.43401,48.2698
Підплеша,Тячівський,Закарпатська,23.80034,48.13145
Ганичі,Тячівський,Закарпатська,23.83913,48.12544
Вільхівці,Тячівський,Закарпатська,23.73957,48.09917
Добрянське,Тячівський,Закарпатська,23.7097,48.06742
Крива,Тячівський,Закарпатська,23.71399,48.02828
Бедевля,Тячівський,Закарпатська,23.66421,48.0039
Біла Церква,Рахівський,Закарпатська,23.92651,47.95086
Осава,Хустський,Закарпатська,23.35951,48.28268
Лунка,Хустський,Закарпатська,23.48826,48.22328
Хустець,Хустський,Закарпатська,23.48293,48.24388
Посіч,Хустський,Закарпатська,23.41393,48.25298
Ділок,Хустський,Закарпатська,23.45547,48.25933
Поляна,Хустський,Закарпатська,23.51555,48.26002
Становець,Хустський,Закарпатська,23.55434,48.26156
Залом,Хустський,Закарпатська,23.31694,48.25642
Липовець,Хустський,Закарпатська,23.30475,48.27564
Крайниково,Хустський,Закарпатська,23.44053,48.1196
Олександрівка,Хустський,Закарпатська,23.51006,48.13745
Кіреші,Хустський,Закарпатська,23.35247,48.18878
Карповтлаш,Хустський,Закарпатська,23.38783,48.20354
Нанково,Хустський,Закарпатська,23.41856,48.19805
Колодне,Тячівський,Закарпатська,23.59829,48.16509
Фонтиняси,Тячівський,Закарпатська,23.75639,48.24148
Вільхівці-лази,Тячівський,Закарпатська,23.69768,48.12578
Ракове,Тячівський,Закарпатська,23.69064,48.11823
Вільхівчик,Тячівський,Закарпатська,23.74231,48.1275
Бобове,Тячівський,Закарпатська,23.66678,48.12441
Груники,Тячівський,Закарпатська,23.66575,48.14535
Пригідь,Тячівський,Закарпатська,23.74163,48.26105
Тячівка,Тячівський,Закарпатська,23.59778,48.03909
Вишоватий,Тячівський,Закарпатська,23.75742,48.09093
Подішор,Тячівський,Закарпатська,23.86591,48.04235
Топчино,Тячівський,Закарпатська,23.85269,48.03892
Пещера,Тячівський,Закарпатська,23.86677,48.05815
Петрушів,Тячівський,Закарпатська,23.80652,48.07669
Лази,Тячівський,Закарпатська,23.64481,48.05815
Руня,Тячівський,Закарпатська,23.63966,48.04012
Округла,Тячівський,Закарпатська,23.66472,48.08407
Дібрівка,Тячівський,Закарпатська,23.66283,48.03463
Глиняний,Тячівський,Закарпатська,23.6776,48.02639
Сасово,Тячівський,Закарпатська,23.70043,48.10037
Біловарці,Тячівський,Закарпатська,23.69425,48.03051
Плаюць,Рахівський,Закарпатська,23.9411,48.01815
Добрік,Рахівський,Закарпатська,23.90333,48.01214
Стримба,Рахівський,Закарпатська,23.91586,48.04407
Модьорош,Хустський,Закарпатська,23.34887,48.07291
Шаян,Хустський,Закарпатська,23.34921,48.05918
Ракош,Хустський,Закарпатська,23.39333,48.04321
Вонігове,Тячівський,Закарпатська,23.52739,48.07497
Зарічне,Хустський,Закарпатська,23.28724,48.20234
Вишній Дубовець,Тячівський,Закарпатська,23.90642,48.17831
Нижній Дубовець,Тячівський,Закарпатська,23.90247,48.15977
Сітний,Рахівський,Закарпатська,24.29403,48.12235
Бребоя,Рахівський,Закарпатська,24.38776,48.0487
Росішка,Рахівський,Закарпатська,24.06967,47.98502
Круглий,Рахівський,Закарпатська,24.18846,47.96047
Білин,Рахівський,Закарпатська,24.25404,48.11102
Новоселиця,Тячівський,Закарпатська,23.75776,48.16698
Тисалово,Тячівський,Закарпатська,23.77733,48.13831
Нересниця,Тячівський,Закарпатська,23.76909,48.12269
Велика Уголька,Тячівський,Закарпатська,23.65683,48.19805
Мала Уголька,Тячівський,Закарпатська,23.63829,48.17676
Яблунівка,Хустський,Закарпатська,23.52173,48.01454
Калини,Тячівський,Закарпатська,23.86694,48.13934
Косівська Поляна,Рахівський,Закарпатська,24.10675,48.00304
Тростянець,Рахівський,Закарпатська,24.26725,48.15874
Росош,Тячівський,Закарпатська,23.59005,48.23976
Кутлаш,Хустський,Закарпатська,23.47813,48.2777
Сюрюк,Хустський,Закарпатська,23.47384,48.27135
Верхнє Водяне,Рахівський,Закарпатська,23.96805,47.99566
Кваси,Рахівський,Закарпатська,24.28202,48.14569
Розтоки,Рахівський,Закарпатська,24.30725,48.06999
Сарата,Путильський,Чернівецька,24.99338,47.74916
Ворохта,м. Яремча,Івано-Франківська,24.57436,48.28268
Верховина,Верховинський,Івано-Франківська,24.81812,48.15531
Кути,Косівський,Івано-Франківська,25.18118,48.26362
Вижниця,Вижницький,Чернівецька,25.17946,48.24217
Путила,Путильський,Чернівецька,25.08642,47.99017
Берегомет,Вижницький,Чернівецька,25.31971,48.16887
Бабин,Косівський,Івано-Франківська,25.04282,48.27633
Малий Рожин,Косівський,Івано-Франківська,25.07973,48.26088
Річка,Косівський,Івано-Франківська,24.93313,48.2801
Барвінків,Верховинський,Івано-Франківська,25.01329,48.1172
Біла Річка,Верховинський,Івано-Франківська,24.89519,47.96511
Берестечко,Верховинський,Івано-Франківська,24.6801,48.10587
Буковець,Верховинський,Івано-Франківська,24.93914,48.19977
Рівня,Верховинський,Івано-Франківська,24.95527,48.13728
Кохан,Верховинський,Івано-Франківська,24.9436,48.09196
Криворівня,Верховинський,Івано-Франківська,24.89657,48.17522
Перехресне,Верховинський,Івано-Франківська,24.92403,48.09917
Полянки,Верховинський,Івано-Франківська,24.95493,48.06587
Сеньківське,Верховинський,Івано-Франківська,24.85743,48.03823
Стаїще,Верховинський,Івано-Франківська,24.73332,48.18621
Стовпні,Верховинський,Івано-Франківська,24.82189,47.98777
Топільче,Верховинський,Івано-Франківська,24.73761,48.08647
Хороцеве,Верховинський,Івано-Франківська,25.01741,48.13265
Черетів,Верховинський,Івано-Франківська,24.97433,48.21127
Явірник,Верховинський,Івано-Франківська,24.74224,48.02347
Снідавка,Косівський,Івано-Франківська,24.86343,48.24062
Голови,Верховинський,Івано-Франківська,24.87906,48.06209
Голошина,Путильський,Чернівецька,24.88609,47.88751
Грамотне,Верховинський,Івано-Франківська,24.84524,47.95584
Замагора,Верховинський,Івано-Франківська,24.82138,48.10175
Красноїлля,Верховинський,Івано-Франківська,24.9048,48.1081
Пробійнівка,Верховинський,Івано-Франківська,24.8255,47.97352
Яблуниця,Верховинський,Івано-Франківська,24.91287,48.01351
Зелене,Верховинський,Івано-Франківська,24.75597,48.05094
Розтоки,Путильський,Чернівецька,25.13105,48.18346
Тюдів,Косівський,Івано-Франківська,25.13037,48.23942
Старі Кути,Косівський,Івано-Франківська,25.16075,48.27907
Бистрець,Верховинський,Івано-Франківська,24.69229,48.12303
Устеріки,Верховинський,Івано-Франківська,24.99012,48.12733
Чорна Річка,Верховинський,Івано-Франківська,24.86876,48.08596
Білоберізка,Верховинський,Івано-Франківська,25.04694,48.16561
Ільці,Верховинський,Івано-Франківська,24.75992,48.15307
Яворів,Косівський,Івано-Франківська,25.02085,48.22071
Шепіт,Косівський,Івано-Франківська,24.85657,48.26517
Буркут,Верховинський,Івано-Франківська,24.69503,47.94296
Верхній Ясенів,Верховинський,Івано-Франківська,24.94532,48.16131
Волова,Верховинський,Івано-Франківська,24.69933,48.24097
Гринява,Верховинський,Івано-Франківська,24.8703,47.98159
Кривопілля,Верховинський,Івано-Франківська,24.69606,48.19462
Бережниця,Верховинський,Івано-Франківська,24.83511,48.20354
Черемошна,Верховинський,Івано-Франківська,24.93004,48.0427
Красник,Верховинський,Івано-Франківська,24.73623,48.14449
Великий Рожин,Косівський,Івано-Франківська,25.03664,48.2135
Вигода,Верховинський,Івано-Франківська,24.96952,48.13145
Липовани,Вижницький,Чернівецька,25.45258,48.22809
Лопушина,Вижницький,Чернівецька,25.28624,48.08716
Луківці,Вижницький,Чернівецька,25.42477,48.19719
Чорногузи,Вижницький,Чернівецька,25.2277,48.27049
Фальків,Вижницький,Чернівецька,25.42305,47.95858
Дихтинець,Путильський,Чернівецька,25.04522,48.06072
Нижній Яловець,Путильський,Чернівецька,24.99767,47.85524
Плоска,Путильський,Чернівецька,25.14204,47.91241
Тораки,Путильський,Чернівецька,25.07114,48.02021
Шепіт,Путильський,Чернівецька,25.14187,47.80477
Яблуниця,Верховинський,Івано-Франківська,24.92008,48.02776
Черешенька,Вижницький,Чернівецька,25.28143,48.21882
Багна,Вижницький,Чернівецька,25.23096,48.22431
Банилів-підгірний,Сторожинецький,Чернівецька,25.49292,48.09385
Вахнівці,Вижницький,Чернівецька,25.47987,48.25727
Велике,Вижницький,Чернівецька,25.41395,48.15822
Виженка,Вижницький,Чернівецька,25.18513,48.2123
Долішній Шепіт,Вижницький,Чернівецька,25.28795,48.01248
Заріччя,Вижницький,Чернівецька,25.32486,48.1584
Лекечі,Вижницький,Чернівецька,25.28795,48.11891
Мигове,Вижницький,Чернівецька,25.38082,48.14964
Середній Майдан,Вижницький,Чернівецька,25.37396,48.26105
Косованка,Сторожинецький,Чернівецька,25.49669,48.2365
Стара Жадова,Сторожинецький,Чернівецька,25.49463,48.19805
Андреківське,Путильський,Чернівецька,25.11629,47.80254
Великий Липовець,Путильський,Чернівецька,24.99149,48.05351
Верхній Яловець,Путильський,Чернівецька,25.07303,47.82417
Випчина,Путильський,Чернівецька,25.03458,47.90176
Галицівка,Путильський,Чернівецька,25.25311,47.90708
Замогила,Путильський,Чернівецька,25.08694,48.04544
Киселиці,Путильський,Чернівецька,25.05449,48.03463
Лустун,Путильський,Чернівецька,25.18736,47.91893
Мариничі,Путильський,Чернівецька,25.04076,48.12269
Міжброди,Путильський,Чернівецька,25.11852,48.22689
Околена,Путильський,Чернівецька,25.09449,48.15925
Петраші,Путильський,Чернівецька,25.09895,48.13402
Плай,Путильський,Чернівецька,24.92455,47.98519
Плита,Путильський,Чернівецька,24.97879,48.03291
Площі,Путильський,Чернівецька,25.06497,48.05025
Підзахаричі,Путильський,Чернівецька,25.12608,48.20835
Поляківське,Путильський,Чернівецька,25.08745,48.01969
Розтоки,Путильський,Чернівецька,25.14118,48.16749
Рижа,Путильський,Чернівецька,25.05982,47.96579
Рипень,Путильський,Чернівецька,25.08041,47.94279
Самакова,Путильський,Чернівецька,24.97776,48.00648
Селятин,Путильський,Чернівецька,25.1865,47.87344
Сергії,Путильський,Чернівецька,25.14856,47.98553
Соколій,Путильський,Чернівецька,25.06016,48.02639
Тесницька,Путильський,Чернівецька,25.16796,47.98021
Фошки,Путильський,Чернівецька,25.19011,47.96682
Хорови,Путильський,Чернівецька,25.14479,48.18054
Шпетки,Путильський,Чернівецька,25.01501,48.10449
Ями,Путильський,Чернівецька,25.12814,48.16097
Голошина,Путильський,Чернівецька,24.94515,47.93112
Паркулина,Путильський,Чернівецька,25.12608,47.98794
Стебні,Верховинський,Івано-Франківська,25.02239,48.0796
Вовчинець,Вижницький,Чернівецька,25.44468,48.16681
Товарниця,Путильський,Чернівецька,25.175,48.13024
Малий Дихтинець,Путильський,Чернівецька,25.02359,48.04802
Руська,Путильський,Чернівецька,25.26152,47.91155
Гробище,Путильський,Чернівецька,25.0569,47.99532
Конятин,Путильський,Чернівецька,24.93862,48.0427
Довгопілля,Путильський,Чернівецька,24.97364,48.07016
Майдан,Вижницький,Чернівецька,25.43644,48.26259
Майдан,Вижницький,Чернівецька,25.31885,48.26002
Греблина,Путильський,Чернівецька,25.02497,48.06089
Греблина,Путильський,Чернівецька,24.99544,48.08304
Бісків,Путильський,Чернівецька,25.17019,48.09214
Бісків,Путильський,Чернівецька,25.08127,48.08681
Усть-путила,Путильський,Чернівецька,25.1635,48.05797
Говерла,Рахівський,Закарпатська,24.45059,48.07789
Луги,Рахівський,Закарпатська,24.4384,48.06415
Лазещина,Рахівський,Закарпатська,24.41488,48.27392
Новоселиця,Новоселицький,Чернівецька,26.27415,48.21865
Герца,Герцаївський,Чернівецька,26.26196,48.1493
Сторожинець,Сторожинецький,Чернівецька,25.72243,48.16114
Глибока,Глибоцький,Чернівецька,25.92894,48.08578
Красноїльськ,Сторожинецький,Чернівецька,25.60175,48.01866
Бояни,Новоселицький,Чернівецька,26.12463,48.27066
Котелеве,Новоселицький,Чернівецька,26.35637,48.28354
Кошуляни,Новоселицький,Чернівецька,26.56254,48.24921
Новоіванківці,Новоселицький,Чернівецька,26.48272,48.22431
Ревківці,Новоселицький,Чернівецька,26.20857,48.28113
Слобода,Новоселицький,Чернівецька,26.20085,48.27616
Строїнці,Новоселицький,Чернівецька,26.25355,48.24371
Бобівці,Сторожинецький,Чернівецька,25.68775,48.2638
Буденець,Сторожинецький,Чернівецька,25.65222,48.0851
Дібрівка,Сторожинецький,Чернівецька,25.54991,48.24886
Кам'яна,Сторожинецький,Чернівецька,25.85564,48.22328
Панка,Сторожинецький,Чернівецька,25.64793,48.1735
Комарівці,Сторожинецький,Чернівецька,25.58493,48.1953
Костинці,Сторожинецький,Чернівецька,25.64467,48.27976
Михальча,Сторожинецький,Чернівецька,25.851,48.25144
Нова Красношора,Сторожинецький,Чернівецька,25.54596,48.06553
Слобода-комарівці,Сторожинецький,Чернівецька,25.63179,48.22397
Стара Красношора,Сторожинецький,Чернівецька,25.52897,48.03823
Череш,Сторожинецький,Чернівецька,25.61068,48.09763
Ясени,Сторожинецький,Чернівецька,25.66372,48.27478
Багринівка,Глибоцький,Чернівецька,25.94336,47.98347
Черепківці,Глибоцький,Чернівецька,25.96481,48.02193
Валя Кузьмина,Глибоцький,Чернівецька,26.01837,48.1838
Верхні Синівці,Глибоцький,Чернівецька,26.11382,48.01489
Димка,Глибоцький,Чернівецька,25.96584,48.09265
Коровія,Глибоцький,Чернівецька,25.97082,48.2262
Корчівці,Глибоцький,Чернівецька,25.79264,48.01283
Купка,Глибоцький,Чернівецька,25.78199,48.0439
Михайлівка,Глибоцький,Чернівецька,25.97408,48.11582
Нижні Синівці,Глибоцький,Чернівецька,26.12944,48.00682
Привороки,Глибоцький,Чернівецька,26.02816,48.10123
Станівці,Глибоцький,Чернівецька,26.06558,48.07291
Чагор,Глибоцький,Чернівецька,25.98713,48.24097
Червона Діброва,Глибоцький,Чернівецька,25.9298,48.13831
Горбова,Герцаївський,Чернівецька,26.17167,48.21024
Дяківці,Герцаївський,Чернівецька,26.24256,48.10261
Куликівка,Герцаївський,Чернівецька,26.1672,48.09471
Петрашівка,Герцаївський,Чернівецька,26.10884,48.09797
Тернавка,Герцаївський,Чернівецька,26.20686,48.11376
Цурень,Герцаївський,Чернівецька,26.10094,48.2365
Мала Буда,Герцаївський,Чернівецька,26.11227,48.16286
Хряцька,Герцаївський,Чернівецька,26.18712,48.15668
Турятка,Глибоцький,Чернівецька,26.14403,48.04802
Тарашани,Глибоцький,Чернівецька,26.01357,48.1184
Молниця,Герцаївський,Чернівецька,26.2254,48.19427
Драниця,Новоселицький,Чернівецька,26.53078,48.23015
Костичани,Новоселицький,Чернівецька,26.50932,48.22758
Молодія,Глибоцький,Чернівецька,26.02387,48.2274
Ропча,Сторожинецький,Чернівецька,25.76655,48.11754
Остриця,Новоселицький,Чернівецька,26.05339,48.25727
Тарасівці,Новоселицький,Чернівецька,26.36719,48.20269
Ванчиківці,Новоселицький,Чернівецька,26.44787,48.21539
Думени,Новоселицький,Чернівецька,26.49765,48.2214
Мамалига,Новоселицький,Чернівецька,26.58743,48.25556
Нові Бросківці,Сторожинецький,Чернівецька,25.69737,48.23891
Волока,Глибоцький,Чернівецька,25.94301,48.19462
Зруб-комарівський,Сторожинецький,Чернівецька,25.57308,48.1644
Боянівка,Новоселицький,Чернівецька,26.16514,48.24715
Ванчинець,Новоселицький,Чернівецька,26.41199,48.21213
Зелений Гай,Новоселицький,Чернівецька,26.21389,48.22723
Маршинці,Новоселицький,Чернівецька,26.30299,48.21178
Негринці,Новоселицький,Чернівецька,26.5519,48.23444
Припруття,Новоселицький,Чернівецька,26.15948,48.25573
Брусенки,Кіцманський,Чернівецька,25.53789,48.26105
Верхні Петрівці,Сторожинецький,Чернівецька,25.69599,48.07033
Годилів,Сторожинецький,Чернівецька,25.92928,48.2456
Нова Жадова,Сторожинецький,Чернівецька,25.53394,48.22912
Снячів,Сторожинецький,Чернівецька,25.84122,48.18878
Біла Криниця,Глибоцький,Чернівецька,25.88345,47.97695
Горбівці,Глибоцький,Чернівецька,26.09699,47.99497
Грушівка,Глибоцький,Чернівецька,25.97717,48.18878
Карапчів,Глибоцький,Чернівецька,25.85461,48.09523
Кут,Глибоцький,Чернівецька,26.0364,48.19942
Новий Вовчинець,Глибоцький,Чернівецька,25.99863,47.99291
Петричанка,Глибоцький,Чернівецька,25.89375,48.05025
Поляна,Глибоцький,Чернівецька,26.11382,48.04836
Просіка,Глибоцький,Чернівецька,25.81822,48.07068
Просокиряни,Глибоцький,Чернівецька,25.87812,48.08887
Слобідка,Глибоцький,Чернівецька,25.98747,48.0463
Старий Вовчинець,Глибоцький,Чернівецька,25.94301,48.00064
Стерче,Глибоцький,Чернівецька,26.03211,48.03154
Байраки,Герцаївський,Чернівецька,26.11107,48.11617
Банчени,Герцаївський,Чернівецька,26.1993,48.20286
Буківка,Герцаївський,Чернівецька,26.0927,48.05179
Велика Буда,Герцаївський,Чернівецька,26.07657,48.14758
Великосілля,Герцаївський,Чернівецька,26.31191,48.16166
Круп'янське,Герцаївський,Чернівецька,26.06918,48.16114
Лунка,Герцаївський,Чернівецька,26.29406,48.18346
Маморниця,Герцаївський,Чернівецька,26.09682,48.22019
Радгоспівка,Герцаївський,Чернівецька,26.11141,48.22294
Могилівка,Герцаївський,Чернівецька,26.27432,48.14964
Підвальне,Герцаївський,Чернівецька,26.15055,48.13368
Заволока,Сторожинецький,Чернівецька,25.90113,48.26139
Старі Бросківці,Сторожинецький,Чернівецька,25.742,48.24011
Заболоття,Сторожинецький,Чернівецька,25.66715,48.21625
Луковиця,Глибоцький,Чернівецька,26.06506,48.20045
Годинівка,Герцаївський,Чернівецька,26.13098,48.18895
Нижні Петрівці,Сторожинецький,Чернівецька,25.71522,48.03154
Кам'янка,Глибоцький,Чернівецька,25.9037,48.02605
Давидівка,Сторожинецький,Чернівецька,25.54527,48.13608
Дубове,Сторожинецький,Чернівецька,25.83143,48.27101
Великий Кучурів,Сторожинецький,Чернівецька,25.90765,48.21436
Тисовець,Сторожинецький,Чернівецька,25.89701,48.17093
Глибочок,Сторожинецький,Чернівецька,25.76843,48.18586
Їжівці,Сторожинецький,Чернівецька,25.65291,48.02433
Рені,Ренійський,Одеська,28.28619,45.46074
Ізмаїл,м. Ізмаїл,Одеська,28.83551,45.3471
Болград,Болградський,Одеська,28.60256,45.69437
Орлівка,Ренійський,Одеська,28.45064,45.31946
Новосільське,Ренійський,Одеська,28.57973,45.33646
Табаки,Болградський,Одеська,28.60994,45.73025
Виноградівка,Болградський,Одеська,28.56669,45.68218
Жовтневе,Болградський,Одеська,28.70487,45.63343
Владичень,Болградський,Одеська,28.60376,45.56545
Котловина,Ренійський,Одеська,28.57184,45.50949
Криничне,Болградський,Одеська,28.66779,45.53593
Каланчак,Ізмаїльський,Одеська,28.79379,45.5361
Василівка,Болградський,Одеська,28.83173,45.63995
Кам'янка,Ізмаїльський,Одеська,28.88117,45.56511
Саф'яни,Ізмаїльський,Одеська,28.87705,45.39997
Озерне,Ізмаїльський,Одеська,28.67809,45.40512
Нова Некрасівка,Ізмаїльський,Одеська,28.69492,45.35568
Ларжанка,Ізмаїльський,Одеська,28.72976,45.36014
Матроська,Ізмаїльський,Одеська,28.77594,45.34504
Броска,Ізмаїльський,Одеська,28.78487,45.36993
Плавні,Ренійський,Одеська,28.58008,45.3986
Долинське,Ренійський,Одеська,28.32825,45.47207
Коса,Болградський,Одеська,28.65252,45.47584
Лиманське,Ренійський,Одеська,28.41253,45.43207
Нагірне,Ренійський,Одеська,28.44858,45.4295
Новокаланчак,Ізмаїльський,Одеська,28.77611,45.58416
Нове Жовтневе,Болградський,Одеська,28.79036,45.60923
Тополине,Болградський,Одеська,28.62625,45.6154
Оксамитне,Болградський,Одеська,28.62591,45.63223
Лощинівка,Ізмаїльський,Одеська,28.82023,45.47464
Нові Трояни,Болградський,Одеська,28.85439,45.94173
Городнє,Болградський,Одеська,28.84667,45.89006
Оріхівка,Болградський,Одеська,28.90898,45.80612
Червоноармійське,Болградський,Одеська,28.74762,45.79256
Калчева,Болградський,Одеська,28.81199,45.73351
Залізничне,Болградський,Одеська,28.61612,45.74741
Суворове,Ізмаїльський,Одеська,28.99292,45.57627
Кілія,Кілійський,Одеська,29.25728,45.46228
Вилкове,Кілійський,Одеська,29.58635,45.40169
Стара Некрасівка,Ізмаїльський,Одеська,28.92426,45.34075
Баннівка,Болградський,Одеська,28.92065,45.6875
Багате,Ізмаїльський,Одеська,28.93713,45.40769
Утконосівка,Ізмаїльський,Одеська,28.95413,45.49627
Новокам'янка,Ізмаїльський,Одеська,28.9452,45.61781
Глибоке,Татарбунарський,Одеська,29.60953,45.72922
Кирнички,Ізмаїльський,Одеська,29.06347,45.7069
Приморське,Татарбунарський,Одеська,29.79595,45.693
Лиман,Татарбунарський,Одеська,29.75046,45.67188
Нерушай,Татарбунарський,Одеська,29.5122,45.6566
Старі Трояни,Кілійський,Одеська,29.17025,45.67188
Нова Покровка,Ізмаїльський,Одеська,29.0803,45.6348
Приозерне,Кілійський,Одеська,29.16166,45.60785
Фурманівка,Кілійський,Одеська,29.23222,45.63755
Дмитрівка,Кілійський,Одеська,29.37727,45.64184
Десантне,Кілійський,Одеська,29.53589,45.57335
Шевченкове,Кілійський,Одеська,29.33298,45.55515
Червоний Яр,Кілійський,Одеська,29.20939,45.58536
Муравлівка,Ізмаїльський,Одеська,29.15154,45.55824
Комишівка,Ізмаїльський,Одеська,29.11961,45.51464
Василівка,Кілійський,Одеська,29.16527,45.52648
Приморське,Кілійський,Одеська,29.60541,45.52065
Новоселівка,Кілійський,Одеська,29.2638,45.67772
Першотравневе,Ізмаїльський,Одеська,29.04579,45.48271
Трудове,Кілійський,Одеська,29.39667,45.61832
Струмок,Татарбунарський,Одеська,29.44439,45.72149
Кислиця,Ізмаїльський,Одеська,29.04425,45.41473
Помазани,Кілійський,Одеська,29.30912,45.60236
Миколаївка,Кілійський,Одеська,29.47203,45.62176
Новомиколаївка,Кілійський,Одеська,29.5019,45.60991
Мирне,Кілійський,Одеська,29.46121,45.57369
Ліски,Кілійський,Одеська,29.47804,45.46829
Дзинілор,Кілійський,Одеська,29.11652,45.6518
Татарбунари,Татарбунарський,Одеська,29.61416,45.84097
Тарутине,Тарутинський,Одеська,29.1481,46.18669
Березине,Тарутинський,Одеська,29.20303,46.22755
Сарата,Саратський,Одеська,29.68472,46.02001
Арциз,Арцизький,Одеська,29.42637,45.98654
Олександрівка,Болградський,Одеська,28.95069,45.88955
Виноградне,Болградський,Одеська,28.99704,45.80578
Голиця,Болградський,Одеська,28.98949,45.74964
Дмитрівка,Болградський,Одеська,28.98211,45.97246
Малоярославець Перший,Тарутинський,Одеська,29.00305,46.08576
Вільне,Тарутинський,Одеська,29.04699,45.98619
Новоселівка,Арцизький,Одеська,29.23479,45.95203
Павлівка,Арцизький,Одеська,29.48731,45.96542
Новоселівка,Саратський,Одеська,29.61502,46.00868
Зоря,Саратський,Одеська,29.69587,45.99169
Михайлівка,Саратський,Одеська,29.69965,45.94963
Сергіївка,Саратський,Одеська,29.95457,46.00181
Дивізія,Татарбунарський,Одеська,29.98375,45.9419
Зелена Балка,Арцизький,Одеська,29.57914,45.9292
Делень,Арцизький,Одеська,29.18776,45.91255
Нова Іванівка,Арцизький,Одеська,29.0827,45.9153
Плоцьк,Арцизький,Одеська,29.38637,45.87805
Зарічне,Татарбунарський,Одеська,29.69828,45.83633
Дмитрівка,Татарбунарський,Одеська,29.48439,45.83839
Виноградівка,Арцизький,Одеська,29.3795,45.82483
Главані,Арцизький,Одеська,29.19874,45.84629
Задунаївка,Арцизький,Одеська,29.10605,45.83307
Борисівка,Татарбунарський,Одеська,29.63734,45.78981
Рибальське,Татарбунарський,Одеська,29.83011,45.77865
Трихатки,Татарбунарський,Одеська,29.78085,45.73454
Баштанівка,Татарбунарський,Одеська,29.47872,45.76372
Спаське,Татарбунарський,Одеська,29.43958,45.75874
Острівне,Арцизький,Одеська,29.156,45.76218
Безім'янка,Татарбунарський,Одеська,30.01482,45.89985
Весела Балка,Татарбунарський,Одеська,30.04109,45.85264
Рівне,Тарутинський,Одеська,29.14175,46.01366
Ярове,Тарутинський,Одеська,29.09248,46.04645
Виноградівка,Тарутинський,Одеська,29.11961,46.08232
Лужанка,Тарутинський,Одеська,29.19067,46.04421
Садове,Арцизький,Одеська,29.27719,46.01932
Красне,Тарутинський,Одеська,29.24595,46.11786
Веселий Кут,Арцизький,Одеська,29.28869,46.04919
Мирнопілля,Арцизький,Одеська,29.39461,46.05829
Вишняки,Арцизький,Одеська,29.49932,46.07975
Роща,Арцизький,Одеська,29.34809,46.12181
Новомирне,Арцизький,Одеська,29.37264,46.13983
Вознесенка Перша,Арцизький,Одеська,29.48078,46.13005
Роза,Тарутинський,Одеська,29.36131,46.19614
Єлизаветівка,Тарутинський,Одеська,29.34654,46.16009
Перемога,Тарутинський,Одеська,29.34036,46.19047
Нові Каплани,Арцизький,Одеська,29.42791,46.18
Введенка,Саратський,Одеська,29.53314,46.1709
Весела Долина,Тарутинський,Одеська,29.31873,46.2363
Світлодолинське,Саратський,Одеська,29.58824,46.09159
Мирнопілля,Саратський,Одеська,29.64163,46.16472
Молдове,Саратський,Одеська,29.65193,46.21485
Надежда,Саратський,Одеська,29.64918,46.22738
Ярославка,Саратський,Одеська,29.87131,46.07889
Романівка,Білгород-дністровський,Одеська,29.96847,46.09692
Миколаївка-новоросійська,Саратський,Одеська,29.90444,46.13417
Успенівка,Саратський,Одеська,29.86221,46.18429
Карналіївка,Білгород-дністровський,Одеська,30.02701,46.21622
Трапівка,Татарбунарський,Одеська,29.69845,45.79496
Жовтий Яр,Татарбунарський,Одеська,29.9235,45.86569
Малоярославець Другий,Тарутинський,Одеська,29.08596,46.15288
Кочкувате,Татарбунарський,Одеська,29.87681,45.80286
Вишневе,Татарбунарський,Одеська,29.77381,45.80646
Холмське,Арцизький,Одеська,29.22878,45.76166
Кам'янське,Арцизький,Одеська,29.26226,45.81917
Прямобалка,Арцизький,Одеська,29.30019,45.89195
Плахтіївка,Саратський,Одеська,29.72008,46.09451
Крива Балка,Саратський,Одеська,29.89363,46.19116
Теплиця,Арцизький,Одеська,29.35616,45.98122
Долинівка,Арцизький,Одеська,29.5273,45.99443
Лиман,Татарбунарський,Одеська,29.96452,45.90311
Нове,Татарбунарський,Одеська,29.87114,45.90242
Нова Олексіївка,Татарбунарський,Одеська,29.61433,45.89315
Маразліївка,Татарбунарський,Одеська,29.89809,45.88337
Роздольне,Татарбунарський,Одеська,29.91921,45.88697
Царичанка,Татарбунарський,Одеська,29.92178,45.8535
Ройлянка,Татарбунарський,Одеська,29.92006,45.83633
Новоселиця,Татарбунарський,Одеська,29.69759,45.82346
Новохолмське,Арцизький,Одеська,29.18793,45.79067
Надеждівка,Арцизький,Одеська,29.43598,45.79857
Василівка,Арцизький,Одеська,29.38637,46.17124
Нова Плахтіївка,Саратський,Одеська,29.6521,46.11666
Нова Іванівка,Саратський,Одеська,29.64026,46.18961
Кам'янка,Саратський,Одеська,29.643,46.17897
Негрове,Саратський,Одеська,29.6545,46.20111
Костянтинівка,Саратський,Одеська,29.92693,46.05108
Великорибальське,Саратський,Одеська,29.8435,46.07597
Комишівка Перша,Саратський,Одеська,29.85003,46.21467
Над'ярне,Саратський,Одеська,29.88865,46.21588
Білолісся,Татарбунарський,Одеська,29.69725,45.89813
Розівка,Саратський,Одеська,29.8974,46.04593
Пасічне,Саратський,Одеська,29.61176,46.20249
Балабанка,Татарбунарський,Одеська,29.85329,45.76492
Долинка,Саратський,Одеська,29.64403,45.9347
Білгород-дністровський,м. Білгород-Дністровський,Одеська,30.31677,46.18137
Сергіївка,м. Білгород-Дністровський,Одеська,30.37205,46.02739
Затока,м. Білгород-Дністровський,Одеська,30.45771,46.06705
Широке,Білгород-дністровський,Одеська,30.09052,45.96645
Благодатне,Білгород-дністровський,Одеська,30.17653,45.98928
Вільне,Білгород-дністровський,Одеська,30.28879,45.99443
Косівка,Білгород-дністровський,Одеська,30.32124,45.99838
Попаздра,Білгород-дністровський,Одеська,30.30287,45.98328
Миколаївка,Білгород-дністровський,Одеська,30.21772,45.90706
Базар'янка,Татарбунарський,Одеська,30.14666,45.88749
Тузли,Татарбунарський,Одеська,30.09241,45.86552
Веселе,Татарбунарський,Одеська,30.0864,45.90723
Новомихайлівка,Татарбунарський,Одеська,30.0701,45.83959
Гончарівка,Білгород-дністровський,Одеська,30.0701,46.23957
Андріївка,Білгород-дністровський,Одеська,30.0852,46.22
Молога,Білгород-дністровський,Одеська,30.23111,46.21622
Випасне,Білгород-дністровський,Одеська,30.25618,46.18721
Бритівка,Білгород-дністровський,Одеська,30.2833,46.1721
Дальник,Овідіопольський,Одеська,30.53392,46.22566
Бикоза,Білгород-дністровський,Одеська,30.1779,46.18978
Розкішне,Білгород-дністровський,Одеська,30.13155,46.17794
Монаші,Білгород-дністровський,Одеська,30.05362,46.16197
Вигон,Білгород-дністровський,Одеська,30.29308,46.14704
Олексіївка,Білгород-дністровський,Одеська,30.06186,46.12507
Маразліївка,Білгород-дністровський,Одеська,30.04932,46.09846
Польове,Білгород-дністровський,Одеська,30.22648,46.12558
Полянка,Білгород-дністровський,Одеська,30.061,46.0849
Черкеси,Білгород-дністровський,Одеська,30.21017,46.07666
Привітне,Білгород-дністровський,Одеська,30.28416,46.0873
Софіївка,Білгород-дністровський,Одеська,30.28948,46.04919
Авидівка,Білгород-дністровський,Одеська,30.20657,46.03872
Великомар'янівка,Білгород-дністровський,Одеська,30.06409,46.03134
Адамівка,Білгород-дністровський,Одеська,30.21996,46.01229
Санжійка,Овідіопольський,Одеська,30.60705,46.23253
Роксолани,Овідіопольський,Одеська,30.45393,46.17708
Шабо,Білгород-дністровський,Одеська,30.38544,46.12713
Садове,Білгород-дністровський,Одеська,30.21206,46.23424
Курортне,Білгород-дністровський,Одеська,30.29875,45.94208
Приморське,Білгород-дністровський,Одеська,30.28158,45.97092
Лебедівка,Татарбунарський,Одеська,30.14683,45.82586
Сухолужжя,Білгород-дністровський,Одеська,30.26596,46.21485
Нове,Білгород-дністровський,Одеська,30.16777,46.22875
Грибівка,Овідіопольський,Одеська,30.55916,46.20901
Салгани,Білгород-дністровський,Одеська,30.34493,46.14962
Абрикосове,Білгород-дністровський,Одеська,30.29514,46.11666
Прибережне,Білгород-дністровський,Одеська,30.41119,46.08044
Долинівка,Білгород-дністровський,Одеська,30.12091,46.03958
Чабанське,Білгород-дністровський,Одеська,30.34767,46.00782
Біленьке,Білгород-дністровський,Одеська,30.36982,46.05177
Піщанка,Піщанський,Вінницька,28.89422,48.20354
Ямпіль,Ямпільський,Вінницька,28.29186,48.24903
Пороги,Ямпільський,Вінницька,28.32275,48.24079
Вільшанка,Крижопільський,Вінницька,28.62539,48.25109
Шуми,Крижопільський,Вінницька,28.55759,48.2571
Біла,Ямпільський,Вінницька,28.22096,48.25144
Велика Кісниця,Ямпільський,Вінницька,28.45081,48.13934
Гальжбіївка,Ямпільський,Вінницька,28.2177,48.26345
Довжок,Ямпільський,Вінницька,28.526,48.23942
Іванків,Ямпільський,Вінницька,28.37734,48.21075
Придністрянське,Ямпільський,Вінницька,28.44395,48.19805
Слобода-підлісівська,Ямпільський,Вінницька,28.47313,48.22088
Верхня Слобідка,Піщанський,Вінницька,28.58591,48.18689
Кукули,Піщанський,Вінницька,28.75208,48.16801
Миролюбівка,Піщанський,Вінницька,28.8386,48.25865
Ставки,Піщанський,Вінницька,28.88083,48.26259
Студена,Піщанський,Вінницька,28.85473,48.14535
Трибусівка,Піщанський,Вінницька,28.66299,48.18518
Добрянка,Ямпільський,Вінницька,28.35194,48.28148
Русава,Ямпільський,Вінницька,28.31057,48.2789
Болган,Піщанський,Вінницька,28.73131,48.14363
Затишне,Піщанський,Вінницька,28.89439,48.15977
Дмитрашківка,Піщанський,Вінницька,28.77594,48.19788
Михайлівка,Ямпільський,Вінницька,28.09445,48.27324
Северинівка,Ямпільський,Вінницька,28.41459,48.2365
Одаї,Крижопільський,Вінницька,28.7459,48.26002
Файгород,Крижопільський,Вінницька,28.71225,48.242
Доярня,Крижопільський,Вінницька,28.68582,48.27633
Калинівка,Піщанський,Вінницька,28.65543,48.21693
Рудник,Крижопільський,Вінницька,28.59982,48.21865
Підлісівка,Ямпільський,Вінницька,28.47141,48.24251
Франківка,Ямпільський,Вінницька,28.36704,48.25315
Оксанівка,Ямпільський,Вінницька,28.18886,48.23238
Улянівка,Ямпільський,Вінницька,28.23092,48.22346
Грабарівка,Піщанський,Вінницька,28.64204,48.16423
Миколаївка,Піщанський,Вінницька,28.81594,48.19736
Трудове,Піщанський,Вінницька,28.80632,48.19324
Палійове,Піщанський,Вінницька,28.85593,48.17659
Чабанове,Піщанський,Вінницька,28.8422,48.17058
П'ятихатка,Піщанський,Вінницька,28.83362,48.16355
Червона Поляна,Піщанський,Вінницька,28.90366,48.10484
Цекинівка,Ямпільський,Вінницька,28.32001,48.15445
Загнітків,Кодимський,Одеська,28.88271,48.04373
Серпневе,Тарутинський,Одеська,29.01609,46.30342
Бородіно,Тарутинський,Одеська,29.24217,46.30188
Лиманське,Роздільнянський,Одеська,29.97877,46.68383
Сухувате,Тарутинський,Одеська,28.98451,46.41638
Калачівка,Тарутинський,Одеська,28.98914,46.38771
Підгірне,Тарутинський,Одеська,29.04631,46.25021
Височанське,Тарутинський,Одеська,29.04459,46.48624
Новоукраїнка,Тарутинський,Одеська,29.07944,46.49362
Нове Тарутине,Тарутинський,Одеська,29.12287,46.46856
Вознесенка Друга,Тарутинський,Одеська,29.17814,46.42101
Євгенівка,Тарутинський,Одеська,29.20235,46.38771
Надрічне,Тарутинський,Одеська,29.10416,46.37226
Іванчанка,Тарутинський,Одеська,29.13265,46.3417
Богданівка,Тарутинський,Одеська,29.27857,46.35561
Юр'ївка,Тарутинський,Одеська,29.29401,46.35681
Єлизаветівка,Тарутинський,Одеська,29.2741,46.39664
Благодатне,Тарутинський,Одеська,29.21608,46.45054
Петрівка,Тарутинський,Одеська,29.17059,46.50616
Благодатне,Саратський,Одеська,29.64747,46.25793
Пшеничне,Саратський,Одеська,29.63184,46.28471
Фараонівка,Саратський,Одеська,29.62051,46.32248
Старосілля,Саратський,Одеська,29.46877,46.32608
Миколаївка,Тарутинський,Одеська,29.40628,46.369
Олександрівка,Тарутинський,Одеська,29.45486,46.44161
Міняйлівка,Саратський,Одеська,29.5182,46.38273
Петропавлівка,Саратський,Одеська,29.5697,46.34016
Нова Царичанка,Білгород-дністровський,Одеська,29.87955,46.25587
Стара Царичанка,Білгород-дністровський,Одеська,29.86633,46.28815
Лугове,Саратський,Одеська,29.82582,46.25296
Петрівка,Білгород-дністровський,Одеська,29.95422,46.30926
Руськоіванівка,Білгород-дністровський,Одеська,29.7654,46.37123
Ройлянка,Саратський,Одеська,29.78994,46.28694
Забари,Саратський,Одеська,29.75287,46.3048
Ганнівка,Тарутинський,Одеська,29.3371,46.41037
Лісне,Тарутинський,Одеська,29.34774,46.46925
Удобне,Білгород-дністровський,Одеська,30.04314,46.38084
Козацьке,Білгород-дністровський,Одеська,30.04589,46.34823
Кучурган,Роздільнянський,Одеська,29.9774,46.72365
Крутоярівка,Білгород-дністровський,Одеська,29.81947,46.35595
Дальнічень,Білгород-дністровський,Одеська,29.68008,46.40642
Чистоводне,Білгород-дністровський,Одеська,29.75699,46.43904
Червоне,Тарутинський,Одеська,29.23325,46.41689
Старокозаче,Білгород-дністровський,Одеська,29.97912,46.33518
Градениці,Біляївський,Одеська,29.99765,46.59851
Підгірне,Білгород-дністровський,Одеська,30.0222,46.25999
Зеленівка,Білгород-дністровський,Одеська,30.00641,46.29261
Олексіївка,Тарутинський,Одеська,29.08339,46.44247
Булатівка,Тарутинський,Одеська,29.10605,46.41895
Зелена Долина,Тарутинський,Одеська,29.11137,46.48916
Плачинда,Тарутинський,Одеська,29.08442,46.47303
Кролівка,Тарутинський,Одеська,29.15463,46.41157
Володимирівка,Тарутинський,Одеська,29.21539,46.36454
Рівне,Тарутинський,Одеська,29.22569,46.34479
Слобідка,Тарутинський,Одеська,29.08905,46.39732
Ламбрівка,Тарутинський,Одеська,29.29007,46.32128
Скриванівка,Тарутинський,Одеська,29.21299,46.4435
Новосілка,Тарутинський,Одеська,29.19273,46.47371
Жовтневе,Тарутинський,Одеська,29.18003,46.48453
Семисотка,Саратський,Одеська,29.41641,46.3187
Новоселівка,Тарутинський,Одеська,29.40611,46.40711
Фуратівка,Саратський,Одеська,29.45915,46.3932
Володимирівка,Білгород-дністровський,Одеська,29.74085,46.4193
Троїцьке,Біляївський,Одеська,30.02117,46.541
Велика Михайлівка,Великомихайлівський,Одеська,29.849,47.0783
Трохимівка,Великомихайлівський,Одеська,29.61519,47.18799
Комарівка,Великомихайлівський,Одеська,29.58275,47.16001
Савчинське,Фрунзівський,Одеська,29.84161,47.2225
Войничеве,Фрунзівський,Одеська,29.85947,47.19314
Новороманівка,Великомихайлівський,Одеська,29.95697,47.17272
Глибокояр,Фрунзівський,Одеська,29.79149,47.23143
Росіянівка,Фрунзівський,Одеська,29.70188,47.2261
Мацкули,Великомихайлівський,Одеська,29.9271,47.12345
Багачеве,Великомихайлівський,Одеська,29.80351,47.13753
Новоолександрівка,Великомихайлівський,Одеська,29.56215,47.12191
Нові Бутори,Великомихайлівський,Одеська,29.53056,47.09135
Муратове,Великомихайлівський,Одеська,29.72317,47.10817
Платонівка,Великомихайлівський,Одеська,29.72179,47.06491
Новоборисівка,Великомихайлівський,Одеська,29.99199,47.10182
Поплавка,Великомихайлівський,Одеська,29.96023,47.08757
Новопетрівка,Великомихайлівський,Одеська,29.88796,47.03882
Новокрасне,Роздільнянський,Одеська,29.97276,46.793
Степанівка,Роздільнянський,Одеська,29.98701,46.79352
Розалівка,Роздільнянський,Одеська,29.9774,46.82957
Яковлівка,Роздільнянський,Одеська,29.95749,46.86218
Гребеники,Великомихайлівський,Одеська,29.80505,46.88948
Гаївка,Роздільнянський,Одеська,29.92333,46.91299
Бугай,Роздільнянський,Одеська,29.84934,46.92261
Слов'яносербка,Великомихайлівський,Одеська,29.70085,46.95745
Великоплоске,Великомихайлівський,Одеська,29.67064,47.01153
Новосавицьке,Великомихайлівський,Одеська,29.76471,46.98423
Юрківка,Великомихайлівський,Одеська,29.82342,46.9887
Малоплоске,Великомихайлівський,Одеська,29.73982,47.01273
Гіржове,Великомихайлівський,Одеська,29.81346,47.10302
Новоселівка,Великомихайлівський,Одеська,30.02735,47.19623
Мардарівка,Великомихайлівський,Одеська,30.01534,47.14508
Залізничне,Великомихайлівський,Одеська,30.03319,47.07212
Мигаєве,Великомихайлівський,Одеська,30.04126,46.98715
Широке,Роздільнянський,Одеська,30.03645,46.89617
Гетьманці,Роздільнянський,Одеська,30.00727,46.90922
Дружба,Роздільнянський,Одеська,30.0392,46.85789
Труд-куток,Роздільнянський,Одеська,30.01396,46.75627
Леніне,Фрунзівський,Одеська,29.96933,47.2304
Тростянець,Великомихайлівський,Одеська,29.7872,47.03401
Павлівка,Фрунзівський,Одеська,29.56764,47.24018
Соше-острівське,Великомихайлівський,Одеська,29.75252,47.18988
Парканці,Роздільнянський,Одеська,30.04641,46.9408
Великокомарівка,Великомихайлівський,Одеська,29.64832,47.08689
Грушка,Великомихайлівський,Одеська,29.64369,47.14422
Мар'янівка Перша,Фрунзівський,Одеська,29.81964,47.24447
Малорошове,Фрунзівський,Одеська,29.92504,47.23451
Володимирівка,Фрунзівський,Одеська,29.97603,47.19108
Іванівка,Великомихайлівський,Одеська,29.94392,47.18611
Новопавлівка,Великомихайлівський,Одеська,29.96161,47.15538
Дурбайли,Великомихайлівський,Одеська,29.91989,47.1631
Бессарабка,Великомихайлівський,Одеська,29.86942,47.1595
Водяне,Великомихайлівський,Одеська,29.85638,47.13615
Райки,Великомихайлівський,Одеська,29.93448,47.14388
Кучурган,Великомихайлівський,Одеська,29.79252,47.16036
Стоянове,Великомихайлівський,Одеська,29.71321,47.14044
Василівка,Великомихайлівський,Одеська,29.67527,47.17581
Дівоцьке,Великомихайлівський,Одеська,29.69914,47.08637
Покровка,Великомихайлівський,Одеська,29.72351,47.0898
Кістельниця,Великомихайлівський,Одеська,29.74308,47.0644
Новоантонівка,Великомихайлівський,Одеська,29.74978,47.05427
Орел,Великомихайлівський,Одеська,29.77604,47.02165
Три Криниці,Великомихайлівський,Одеська,29.97963,47.05376
Тятри,Великомихайлівський,Одеська,29.90805,47.08946
Вакарське,Великомихайлівський,Одеська,29.93586,47.06234
Полезне,Великомихайлівський,Одеська,29.83818,47.10646
Павлівка,Роздільнянський,Одеська,29.98701,46.75918
Ангелінівка,Роздільнянський,Одеська,29.94581,46.89257
Нове,Роздільнянський,Одеська,29.87011,46.88845
Плавневе,Роздільнянський,Одеська,29.93774,46.93943
Марківка,Роздільнянський,Одеська,29.94684,46.92947
Труд-гребеник,Роздільнянський,Одеська,29.89449,46.91128
Олег,Великомихайлівський,Одеська,29.74617,46.92552
Дзержинське,Великомихайлівський,Одеська,29.80625,46.92467
Антоно-ковач,Великомихайлівський,Одеська,29.76282,46.94252
Артема,Великомихайлівський,Одеська,29.87475,46.97737
Гірське,Великомихайлівський,Одеська,29.93002,46.97067
Новоселівка,Великомихайлівський,Одеська,29.91148,46.99144
Путилівка,Великомихайлівський,Одеська,29.96676,47.12946
Добрий Лук,Великомихайлівський,Одеська,29.97894,47.12602
Преображенка,Великомихайлівський,Одеська,29.95337,47.13289
Іринівка,Великомихайлівський,Одеська,29.98633,47.1619
Фрасине,Великомихайлівський,Одеська,29.78926,47.10251
Оленівка,Великомихайлівський,Одеська,30.00435,47.1365
Вапнярка,Роздільнянський,Одеська,30.03147,46.959
Петрівка,Роздільнянський,Одеська,30.02976,46.94286
Привілля,Великомихайлівський,Одеська,29.77278,47.05444
Лучинське,Роздільнянський,Одеська,29.94787,46.86338
Мигаї,Великомихайлівський,Одеська,30.00555,47.01101
Саханське,Ширяївський,Одеська,30.04074,47.25632
Новокостянтинівка,Роздільнянський,Одеська,29.9683,46.94973
Кардамичеве,Великомихайлівський,Одеська,29.91371,46.96175
Таїрове,Овідіопольський,Одеська,30.64705,46.36419
Біляївка,Біляївський,Одеська,30.20107,46.48247
Одеса,м. Одеса,Одеська,30.73065,46.46891
Южне,м. Южне,Одеська,31.10109,46.62357
Овідіополь,Овідіопольський,Одеська,30.44071,46.24472
Великодолинське,Овідіопольський,Одеська,30.58268,46.34479
Олександрівка,м. Іллічівськ,Одеська,30.62473,46.3266
Нові Білярі,Комінтернівський,Одеська,30.99226,46.63319
Іллічівськ,м. Іллічівськ,Одеська,30.65563,46.30669
Нове,Роздільнянський,Одеська,30.12709,46.64417
Червона Гірка,Біляївський,Одеська,30.21996,46.6634
Кам'янка,Біляївський,Одеська,30.23523,46.63662
Августівка,Біляївський,Одеська,30.64825,46.63988
Кагарлик,Біляївський,Одеська,30.19764,46.6016
Велика Балка,Біляївський,Одеська,30.6031,46.56143
Курган,Біляївський,Одеська,30.44981,46.52401
Мирне,Біляївський,Одеська,30.37256,46.46925
Маяки,Біляївський,Одеська,30.27317,46.41226
Надлиманське,Овідіопольський,Одеська,30.33291,46.3726
Мар'янівка,Овідіопольський,Одеська,30.4596,46.38582
Новоградківка,Овідіопольський,Одеська,30.47882,46.35801
Балка,Овідіопольський,Одеська,30.6546,46.38119
Доброолександрівка,Овідіопольський,Одеська,30.48517,46.33827
Семенівка,Білгород-дністровський,Одеська,30.12091,46.27888
Молодіжне,Овідіопольський,Одеська,30.60791,46.30909
Південне,Білгород-дністровський,Одеська,30.14305,46.27029
Міліардівка,Роздільнянський,Одеська,30.20536,46.75163
Кірове,Роздільнянський,Одеська,30.26562,46.72176
Світлогірське,Роздільнянський,Одеська,30.3657,46.73515
Новокубанка,Комінтернівський,Одеська,30.6649,46.7312
Благодатне,Комінтернівський,Одеська,30.83159,46.75197
Іллінка,Біляївський,Одеська,30.63829,46.68348
Вакулівка,Роздільнянський,Одеська,30.31918,46.69704
Щербанка,Роздільнянський,Одеська,30.18511,46.6943
Воронівка,Комінтернівський,Одеська,31.03054,46.65756
Григорівка,Комінтернівський,Одеська,31.00445,46.60435
Порт,Комінтернівський,Одеська,31.00496,46.72674
Булдинка,Комінтернівський,Одеська,30.97784,46.66134
Білярі,Комінтернівський,Одеська,31.03106,46.62392
Нова Дофінівка,Комінтернівський,Одеська,30.90609,46.58066
Фонтанка,Комінтернівський,Одеська,30.85871,46.56435
Крижанівка,Комінтернівський,Одеська,30.78936,46.5604
Красна Коса,Білгород-дністровський,Одеська,30.09138,46.33432
Веселе,Білгород-дністровський,Одеська,30.10666,46.31664
Миколаївка,Овідіопольський,Одеська,30.33119,46.30154
Яськи,Біляївський,Одеська,30.07713,46.51268
Холодна Балка,Біляївський,Одеська,30.58731,46.60417
Протопопівка,Біляївський,Одеська,30.6601,46.60761
Котовка,Біляївський,Одеська,30.71211,46.56675
Нерубайське,Біляївський,Одеська,30.63057,46.54667
Мале,Роздільнянський,Одеська,30.49908,46.74082
Нова Еметівка,Біляївський,Одеська,30.53787,46.72537
Єлизаветівка,Роздільнянський,Одеська,30.49925,46.69807
Одрадове,Роздільнянський,Одеська,30.445,46.68692
Чоботарівка,Біляївський,Одеська,30.56362,46.66889
Ковалівка,Біляївський,Одеська,30.60757,46.7082
Красносілка,Комінтернівський,Одеська,30.77219,46.62134
Нова Долина,Овідіопольський,Одеська,30.58405,46.40316
Малодолинське,м. Іллічівськ,Одеська,30.62851,46.35578
Кубанка,Комінтернівський,Одеська,30.72619,46.70614
Кошари,Комінтернівський,Одеська,31.155,46.66614
Любопіль,Комінтернівський,Одеська,31.10264,46.72073
Секретарівка,Біляївський,Одеська,30.28107,46.65979
Василівка,Біляївський,Одеська,30.30424,46.60623
Майори,Біляївський,Одеська,30.28124,46.53877
Березань,Біляївський,Одеська,30.42852,46.56813
Червоний Розселенець,Біляївський,Одеська,30.44088,46.4617
Ленінське Перше,Біляївський,Одеська,30.36879,46.64966
Вигода,Біляївський,Одеська,30.39883,46.61619
Паліївка,Біляївський,Одеська,30.47041,46.64434
Набережне,Біляївський,Одеська,30.69614,46.57276
Олександрівка,Комінтернівський,Одеська,30.87038,46.60606
Прилиманське,Овідіопольський,Одеська,30.61512,46.42462
Великий Дальник,Біляївський,Одеська,30.5583,46.47268
Першотравневе,Комінтернівський,Одеська,30.91518,46.74356
Визирка,Комінтернівський,Одеська,31.00256,46.68674
Свердлове,Комінтернівський,Одеська,30.88789,46.67747
Єгорівка,Роздільнянський,Одеська,30.40449,46.72211
Сичавка,Комінтернівський,Одеська,31.10178,46.63971
Перше Травня,Роздільнянський,Одеська,30.33806,46.64778
Новоградениця,Роздільнянський,Одеська,30.32621,46.66374
Іллічівка,Комінтернівський,Одеська,30.81511,46.60898
Алтестове,Біляївський,Одеська,30.54834,46.63113
Червона Зірка,Біляївський,Одеська,30.44123,46.64057
Ленінське Друге,Роздільнянський,Одеська,30.35437,46.62134
Петрівське,Біляївський,Одеська,30.36312,46.58014
Важне,Біляївський,Одеська,30.45307,46.5695
Широка Балка,Біляївський,Одеська,30.35608,46.53431
Доброжанове,Біляївський,Одеська,30.33463,46.53843
Повстанське,Біляївський,Одеська,30.25858,46.52298
Жовтнева Революція,Біляївський,Одеська,30.57289,46.49431
Петродолинське,Овідіопольський,Одеська,30.4002,46.43337
Ленінталь,Овідіопольський,Одеська,30.46543,46.42685
Йосипівка,Овідіопольський,Одеська,30.43556,46.40539
Мізікевича,Овідіопольський,Одеська,30.6807,46.3884
Барабой,Овідіопольський,Одеська,30.51865,46.27922
Богатирівка,Овідіопольський,Одеська,30.51624,46.25467
Піонерське,Роздільнянський,Одеська,30.07456,46.73412
Новосільці,Роздільнянський,Одеська,30.17052,46.72726
Андрієво-іванове,Роздільнянський,Одеська,30.33566,46.75163
Кремидівка,Комінтернівський,Одеська,30.78592,46.73241
Нова Вільшанка,Комінтернівський,Одеська,30.94265,46.71627
Переможне,Комінтернівський,Одеська,30.79674,46.70391
Нова Ковалівка,Біляївський,Одеська,30.60637,46.69996
Берегове,Біляївський,Одеська,30.53839,46.7058
Будячки,Роздільнянський,Одеська,30.35797,46.69739
Виноградар,Роздільнянський,Одеська,30.34493,46.67713
Михайлівка,Біляївський,Одеська,30.26802,46.67541
Чапаєве,Біляївський,Одеська,30.59349,46.67593
Ранжеве,Комінтернівський,Одеська,31.0774,46.74494
Міщанка,Комінтернівський,Одеська,30.94797,46.6955
Вапнярка,Комінтернівський,Одеська,30.88703,46.57671
Ліски,Комінтернівський,Одеська,30.81305,46.56143
Болгарка,Роздільнянський,Одеська,30.4656,46.68983
Хоминка,Роздільнянський,Одеська,30.44294,46.71266
Стара Еметівка,Біляївський,Одеська,30.59675,46.73584
Корсунці,Комінтернівський,Одеська,30.77082,46.5901
Бурлача Балка,м. Іллічівськ,Одеська,30.66971,46.33879
Кузьменка,Роздільнянський,Одеська,30.25755,46.73567
Миколаївка,Роздільнянський,Одеська,30.28828,46.64022
Дослідне,Біляївський,Одеська,30.3978,46.59027
Дачне,Біляївський,Одеська,30.54886,46.57757
Черевичне,Біляївський,Одеська,30.6201,46.64297
Світле,Комінтернівський,Одеська,30.82953,46.63936
Сухий Лиман,Овідіопольський,Одеська,30.64276,46.38977
Степове,Роздільнянський,Одеська,30.07988,46.69893
Гвардійське,Комінтернівський,Одеська,30.95621,46.59559
Калантаївка,Роздільнянський,Одеська,30.28244,46.72159
Усатове,Біляївський,Одеська,30.65683,46.53637
Усатове,Біляївський,Одеська,30.60207,46.52367
Березівка,Березівський,Одеська,30.90712,47.19761
Роздільна,Роздільнянський,Одеська,30.0507,46.85377
Іванівка,Іванівський,Одеська,30.4699,46.97668
Радісне,Іванівський,Одеська,30.34493,47.00037
Петрівка,Комінтернівський,Одеська,30.72893,46.90235
Цебрикове,Великомихайлівський,Одеська,30.10752,47.14662
Комінтернівське,Комінтернівський,Одеська,30.95467,46.82459
Люблине,Березанський,Миколаївська,31.15757,46.95522
Прогресівка,Березанський,Миколаївська,31.0611,46.92123
Ташине,Березанський,Миколаївська,31.11809,46.90956
Новопетрівка,Березанський,Миколаївська,31.13045,46.93685
Орджонікідзе,Ширяївський,Одеська,30.19781,47.24928
Журавське,Ширяївський,Одеська,30.09756,47.2546
Крижанівка,Ширяївський,Одеська,30.44071,47.23692
Анатолівка,Березівський,Одеська,30.53684,47.22216
Заводівка,Березівський,Одеська,30.81236,47.22645
Роздол,Березівський,Одеська,30.91621,47.22559
Зброжківка,Березівський,Одеська,30.8709,47.19555
Чижове,Березівський,Одеська,30.77047,47.22576
Червоний Агроном,Березівський,Одеська,30.71898,47.20018
Рівне,Березівський,Одеська,30.59435,47.22319
Новопетрівка Перша,Ширяївський,Одеська,30.36827,47.20739
Новопетрівка Друга,Ширяївський,Одеська,30.37685,47.19435
Розкішне,Ширяївський,Одеська,30.22665,47.17358
Кірове,Великомихайлівський,Одеська,30.08761,47.19332
Юрашеве,Великомихайлівський,Одеська,30.24674,47.15452
Софіївка,Ширяївський,Одеська,30.37325,47.17134
Новостепанівка,Ширяївський,Одеська,30.39385,47.17031
Новоєлизаветівка,Ширяївський,Одеська,30.40175,47.15263
Стара Єлизаветівка,Ширяївський,Одеська,30.3875,47.14353
Катерино-платонівка,Ширяївський,Одеська,30.47848,47.17066
Маркевичеве,Ширяївський,Одеська,30.53238,47.15555
Котовське,Березівський,Одеська,30.59572,47.16122
Данилівка,Березівський,Одеська,30.61993,47.16877
Вікторівка,Березівський,Одеська,30.95518,47.16568
Степанівка,Березівський,Одеська,30.95106,47.14233
Чигирин,Березівський,Одеська,30.73889,47.1298
Ганно-покровка,Ширяївський,Одеська,30.47916,47.13478
Сирітське Перше,Ширяївський,Одеська,30.41685,47.12671
Сирітське Друге,Ширяївський,Одеська,30.40226,47.11761
Чапаєве,Великомихайлівський,Одеська,30.26201,47.10594
Ольгинове,Великомихайлівський,Одеська,30.12571,47.10594
Цибулівка,Великомихайлівський,Одеська,30.15661,47.08877
Великозименове,Великомихайлівський,Одеська,30.26905,47.07384
Михайлопіль,Іванівський,Одеська,30.42595,47.0941
Силівка,Іванівський,Одеська,30.47007,47.09856
Джугастрове,Іванівський,Одеська,30.60894,47.08671
Балайчук,Березівський,Одеська,30.7073,47.09083
Карнагорове,Березівський,Одеська,30.87519,47.11435
Донське,Березівський,Одеська,30.91673,47.12019
Сахарове,Березівський,Одеська,30.97029,47.0941
Калинівка,Іванівський,Одеська,30.64138,47.05324
Козлове,Іванівський,Одеська,30.45376,47.07041
Марціянове,Великомихайлівський,Одеська,30.37342,47.05084
Козакове,Великомихайлівський,Одеська,30.07147,47.05633
Петрівське,Великомихайлівський,Одеська,30.05997,47.03813
Червонознам'янка,Іванівський,Одеська,30.28999,47.01427
Богунове,Іванівський,Одеська,30.46063,47.02835
Шерове,Іванівський,Одеська,30.48517,47.01204
Тарасівка,Іванівський,Одеська,30.56671,47.02457
Петровського,Комінтернівський,Одеська,30.74781,47.04534
Сербка,Комінтернівський,Одеська,30.76498,47.00638
Гудевичеве,Іванівський,Одеська,30.67143,46.99093
Баланини,Іванівський,Одеська,30.60551,46.97428
Бузинове,Іванівський,Одеська,30.48689,46.9741
Прохорове,Іванівський,Одеська,30.46543,47.00466
Сухомлинове,Іванівський,Одеська,30.3657,46.97702
Кошари,Роздільнянський,Одеська,30.1652,46.96501
Данилівка,Великомихайлівський,Одеська,30.12966,46.99213
Сухе,Роздільнянський,Одеська,30.09756,46.96672
Новий Гребеник,Роздільнянський,Одеська,30.08452,46.9202
Лозове,Роздільнянський,Одеська,30.22339,46.94441
Желепове,Роздільнянський,Одеська,30.3027,46.95454
Баранове,Іванівський,Одеська,30.4069,46.93857
Малинівка,Іванівський,Одеська,30.38647,46.9408
Верхній Куяльник,Іванівський,Одеська,30.50818,46.92896
Благоєве,Іванівський,Одеська,30.64825,46.93806
Новомиколаївка,Комінтернівський,Одеська,30.82455,46.96466
Капітанівка,Комінтернівський,Одеська,30.86369,46.9693
Олександрівка,Комінтернівський,Одеська,30.89853,46.96707
Петрівка,Іванівський,Одеська,30.95759,46.96878
Ониськове,Комінтернівський,Одеська,30.82523,46.92295
Улянівка,Комінтернівський,Одеська,30.76292,46.92261
Лізинка,Іванівський,Одеська,30.64482,46.90149
Адамівка,Іванівський,Одеська,30.50646,46.88759
Білка,Іванівський,Одеська,30.4244,46.88999
Новоселівка,Роздільнянський,Одеська,30.28759,46.92329
Старостине,Роздільнянський,Одеська,30.08675,46.89239
Нові Чобручі,Роздільнянський,Одеська,30.07439,46.86682
Бецилове,Роздільнянський,Одеська,30.24193,46.86716
Нижній Куяльник,Іванівський,Одеська,30.53719,46.88364
Старі Шомполи,Комінтернівський,Одеська,30.77786,46.84467
Нові Шомполи,Іванівський,Одеська,30.73048,46.85429
Руська Слобідка,Іванівський,Одеська,30.60156,46.83592
Новоукраїнка,Роздільнянський,Одеська,30.28673,46.81497
Старокостянтинівка,Роздільнянський,Одеська,30.25978,46.84296
Петро-євдокіївка,Роздільнянський,Одеська,30.18442,46.82287
Володимирівка,Роздільнянський,Одеська,30.07387,46.81721
Капаклієве,Роздільнянський,Одеська,30.20571,46.80708
Новодмитрівка,Роздільнянський,Одеська,30.30682,46.78545
Єреміївка,Роздільнянський,Одеська,30.37428,46.79644
Бурдівка,Роздільнянський,Одеська,30.43676,46.80691
Созонівка,Іванівський,Одеська,30.6637,46.78373
Покровка,Роздільнянський,Одеська,30.13945,46.78013
Семихатки,Березівський,Одеська,31.03397,47.15555
Садове,Березівський,Одеська,31.08805,47.16671
Широке,Комінтернівський,Одеська,31.0726,46.87008
Дмитрівка,Комінтернівський,Одеська,31.03003,46.79266
Бутівка,Комінтернівський,Одеська,31.03861,46.76296
Виноградне,Березівський,Одеська,31.09955,47.22645
Іванівка,Веселинівський,Миколаївська,31.15929,47.02509
Кордон,Комінтернівський,Одеська,31.0968,46.82785
Пшонянове,Комінтернівський,Одеська,31.12633,46.79523
Щорсове,Іванівський,Одеська,30.45908,46.84021
Маринівка,Біляївський,Одеська,30.53135,46.75815
Богнатове,Роздільнянський,Одеська,30.48655,46.77772
Павлинка,Іванівський,Одеська,30.6764,46.81223
Червоне,Березівський,Одеська,30.91209,47.07178
Гуляївка,Березівський,Одеська,30.97836,47.06972
Вовкове,Березівський,Одеська,30.96445,47.05461
Софіївка,Березівський,Одеська,31.01389,47.03161
Мар'янівка,Комінтернівський,Одеська,31.1162,46.83025
Шутове,Березівський,Одеська,30.54148,47.20138
Розквіт,Березівський,Одеська,30.611,47.11847
Нейкове,Березівський,Одеська,30.69014,47.13667
Маринове,Березівський,Одеська,30.77339,47.09461
Чорногірка,Березівський,Одеська,30.8551,47.04964
Люботаївка,Іванівський,Одеська,30.56809,47.05358
Першотравневе,Великомихайлівський,Одеська,30.06546,47.00054
Наливайкове,Великомихайлівський,Одеська,30.10237,47.03213
Благоєве,Великомихайлівський,Одеська,30.06924,46.97771
Каїри,Комінтернівський,Одеська,30.96411,46.93685
Шаманівка,Іванівський,Одеська,30.72361,46.78888
Великі Ламзаки,Комінтернівський,Одеська,30.79159,46.80124
Буцинівка,Роздільнянський,Одеська,30.21961,46.76502
Северинівка,Іванівський,Одеська,30.58045,46.82716
Новоселівка,Березівський,Одеська,30.823,47.16173
Веселе,Березівський,Одеська,30.4917,47.2352
Кринички,Березівський,Одеська,30.57306,47.13941
Понятівка,Роздільнянський,Одеська,30.16726,46.90458
Якова,Комінтернівський,Одеська,30.77734,46.88827
Кірове,Комінтернівський,Одеська,30.86111,46.89445
Нове Селище,Комінтернівський,Одеська,30.93166,46.88484
Улянівка,Іванівський,Одеська,30.86214,46.84914
Жовтень,Ширяївський,Одеська,30.33789,47.22456
Привільне,Великомихайлівський,Одеська,30.07164,47.21735
Улянове,Веселинівський,Миколаївська,30.949,47.24155
Травневе,Березівський,Одеська,30.98969,47.25855
Жовтнівка,Березівський,Одеська,30.79176,47.23022
Новоукраїнка,Ширяївський,Одеська,30.45359,47.2007
Косівка,Березівський,Одеська,30.94608,47.12723
Шевченкове,Березівський,Одеська,30.75554,47.14989
Воробйове,Великомихайлівський,Одеська,30.24622,47.12688
Малоцебрикове,Великомихайлівський,Одеська,30.14237,47.11006
Поліно-осипенкове,Великомихайлівський,Одеська,30.16468,47.0632
Марціянове,Іванівський,Одеська,30.27969,47.07676
Донська Балка,Березівський,Одеська,30.94368,47.09169
Мар'янівка,Березівський,Одеська,30.96428,47.12225
Конопляне,Іванівський,Одеська,30.47831,47.05067
Вовкове,Іванівський,Одеська,30.6649,47.01393
Грекова,Комінтернівський,Одеська,30.7394,47.02526
Причепівка,Іванівський,Одеська,30.34012,46.97582
Незаможник,Великомихайлівський,Одеська,30.05241,46.98372
Шевченкове,Роздільнянський,Одеська,30.09687,46.94097
Слобідка,Роздільнянський,Одеська,30.07971,46.92844
Веселе,Роздільнянський,Одеська,30.31729,46.91213
Велізарове,Роздільнянський,Одеська,30.07044,46.88347
Матишівка,Роздільнянський,Одеська,30.05224,46.83523
Бакалове,Роздільнянський,Одеська,30.11782,46.88192
Балкове,Роздільнянський,Одеська,30.16417,46.85463
Поташенкове,Роздільнянський,Одеська,30.33085,46.87162
Ставки,Комінтернівський,Одеська,30.81305,46.87677
Зоринове,Комінтернівський,Одеська,30.94849,46.85188
Касяни,Комінтернівський,Одеська,30.86523,46.86441
Леніна,Іванівський,Одеська,30.68962,46.84656
Шеметове,Роздільнянський,Одеська,30.35505,46.83077
Кам'янка,Роздільнянський,Одеська,30.10941,46.79867
Карпівка,Роздільнянський,Одеська,30.25017,46.78888
Вовківське,Комінтернівський,Одеська,30.88102,46.82562
Степанівка,Комінтернівський,Одеська,30.89819,46.77875
Нове,Комінтернівський,Одеська,30.83244,46.78579
Степове,Комінтернівський,Одеська,30.75657,46.78167
Василівка,Іванівський,Одеська,30.67108,46.77189
Антонівка,Роздільнянський,Одеська,30.09756,46.7712
Івано-миколаївка,Роздільнянський,Одеська,30.05018,46.75987
Зоря Труда,Комінтернівський,Одеська,30.94986,46.76056
Червоноармійське,Березівський,Одеська,31.03363,47.19486
Одрадна Балка,Березівський,Одеська,31.01526,47.06028
Калинівка,Комінтернівський,Одеська,31.03054,46.88261
Червона Нива,Комінтернівський,Одеська,31.07191,46.84742
Улянівка,Березівський,Одеська,31.12804,47.11624
Петрівка,Комінтернівський,Одеська,31.14538,47.00397
Маслове,Іванівський,Одеська,30.44672,46.88312
Блонське,Іванівський,Одеська,30.44123,46.86338
Жовте,Іванівський,Одеська,30.4735,46.85188
Черняхівське,Іванівський,Одеська,30.49067,46.83283
Златоустове,Березівський,Одеська,31.02179,46.99041
Надія,Роздільнянський,Одеська,30.0634,46.96209
Благоєве,Комінтернівський,Одеська,30.79931,46.77051
Малозименове,Великомихайлівський,Одеська,30.20245,47.04998
Новоподільське,Березівський,Одеська,30.85064,47.1401
Кінне,Комінтернівський,Одеська,30.90609,46.7633
Ставкове,Березівський,Одеська,30.63829,47.1825
Онорівка,Березівський,Одеська,30.65237,47.12946
Новакове,Іванівський,Одеська,30.58491,47.11916
Бринівка,Роздільнянський,Одеська,30.39093,46.75421
Олександрівка,Роздільнянський,Одеська,30.36106,46.75609
Шевченкове-кут,Комінтернівський,Одеська,30.90746,46.8742
Сокорове,Великомихайлівський,Одеська,30.06065,47.23709
Новосвітівка,Ширяївський,Одеська,30.22974,47.20791
Ананьїв,Ананьївський,Одеська,29.95937,47.72118
Котовськ,м. Котовськ,Одеська,29.52799,47.76066
Затишшя,Фрунзівський,Одеська,29.86307,47.33477
Красні Окни,Красноокнянський,Одеська,29.4595,47.53956
Фрунзівка,Фрунзівський,Одеська,29.75012,47.33442
Володимирівка,Фрунзівський,Одеська,29.92487,47.30387
Краснопіль,Фрунзівський,Одеська,29.80522,47.29803
Йосипівка,Фрунзівський,Одеська,29.60747,47.32687
Самійлівка,Фрунзівський,Одеська,29.6176,47.28756
Унтилівка,Фрунзівський,Одеська,29.66652,47.26953
Парканівка,Фрунзівський,Одеська,29.61554,47.2637
Качулове,Ширяївський,Одеська,30.02186,47.33854
Боярка,Ананьївський,Одеська,30.0016,47.65182
Новоіванівка,Ананьївський,Одеська,30.00486,47.56033
Самійлівка,Ширяївський,Одеська,30.02066,47.3945
Нестоїта,Котовський,Одеська,29.35581,47.76684
Любомирка,Котовський,Одеська,29.48353,47.76804
Чапаєвка,Котовський,Одеська,29.59082,47.73079
Олександрівка,Котовський,Одеська,29.60833,47.76667
Точилове,Ананьївський,Одеська,29.74754,47.77199
Ананьїв,Ананьївський,Одеська,29.93483,47.71826
Миколаївка,Котовський,Одеська,29.44525,47.72787
Станіславка,Котовський,Одеська,29.25573,47.72461
Стара Кульна,Котовський,Одеська,29.31599,47.69577
Нова Кульна,Котовський,Одеська,29.34792,47.72306
Олексіївка,Котовський,Одеська,29.42705,47.71036
Куйбишевське,Котовський,Одеська,29.66961,47.70332
Новий Мир,Котовський,Одеська,29.80333,47.67792
Павлівка,Котовський,Одеська,29.80539,47.65079
Федорівка,Красноокнянський,Одеська,29.69673,47.65165
Розалівка,Котовський,Одеська,29.63116,47.68066
Новоселівка,Котовський,Одеська,29.61657,47.64908
Коси-слобідка,Котовський,Одеська,29.4643,47.65268
Дігори,Красноокнянський,Одеська,29.29693,47.62779
Чорна,Красноокнянський,Одеська,29.33985,47.61886
Ставрове,Красноокнянський,Одеська,29.55288,47.61268
Новоселівка,Ананьївський,Одеська,29.92607,47.63689
Пасицели,Ананьївський,Одеська,29.93774,47.61114
Бондарі,Ананьївський,Одеська,29.97791,47.59981
Долинське,Ананьївський,Одеська,29.92075,47.53183
Велика Кіндратівка,Котовський,Одеська,29.82908,47.59724
Мала Кіндратівка,Котовський,Одеська,29.73244,47.59106
Петрівка,Фрунзівський,Одеська,29.67545,47.6108
Федорівка,Котовський,Одеська,29.62978,47.60101
Нова Волярка,Красноокнянський,Одеська,29.43615,47.61886
Флора,Красноокнянський,Одеська,29.48061,47.59106
Топали,Красноокнянський,Одеська,29.2911,47.60136
Федосіївка,Красноокнянський,Одеська,29.18226,47.53956
Нагірне,Красноокнянський,Одеська,29.5903,47.57252
Антонівка,Красноокнянський,Одеська,29.61433,47.54471
Перешори,Котовський,Одеська,29.70171,47.54934
Мардарівка,Котовський,Одеська,29.7345,47.54007
Новозаріцьке,Фрунзівський,Одеська,29.8011,47.50694
Олександрівка,Красноокнянський,Одеська,29.54704,47.54436
Новосамарка,Красноокнянський,Одеська,29.53056,47.50814
Галочі,Красноокнянський,Одеська,29.36216,47.51947
Омелянівка,Красноокнянський,Одеська,29.27101,47.53097
Новокрасне,Красноокнянський,Одеська,29.16098,47.53183
Степанівка,Красноокнянський,Одеська,29.25041,47.50917
Самарка,Красноокнянський,Одеська,29.31032,47.49304
Довжанка,Красноокнянський,Одеська,29.39495,47.48239
Первомайське,Фрунзівський,Одеська,29.66171,47.49407
Мар'янівка,Фрунзівський,Одеська,29.71682,47.49287
Дементівка,Фрунзівський,Одеська,29.72008,47.45664
Перше Травня,Фрунзівський,Одеська,29.76488,47.48514
Бірносове,Фрунзівський,Одеська,29.81192,47.46832
Перехрестове,Фрунзівський,Одеська,29.79647,47.43639
Кошарка,Фрунзівський,Одеська,29.6018,47.47244
Маяки,Красноокнянський,Одеська,29.56369,47.44085
Новомихайлівка,Красноокнянський,Одеська,29.52971,47.46591
Артирівка,Красноокнянський,Одеська,29.35856,47.47227
Цеханівка,Красноокнянський,Одеська,29.1984,47.45424
Будаївці,Красноокнянський,Одеська,29.41177,47.42454
Оленівка,Фрунзівський,Одеська,29.45486,47.43536
Тригради,Красноокнянський,Одеська,29.46533,47.40377
Новосеменівка,Красноокнянський,Одеська,29.53983,47.41373
Карабанове,Фрунзівський,Одеська,29.64506,47.42763
Давидівка,Фрунзівський,Одеська,29.72574,47.41201
Новопавлівка,Фрунзівський,Одеська,29.74051,47.39605
Машенька,Ширяївський,Одеська,29.90822,47.37854
Гедеримове Перше,Фрунзівський,Одеська,29.83973,47.3679
Стоянове,Фрунзівський,Одеська,29.7575,47.35966
Гулянка,Красноокнянський,Одеська,29.39152,47.39879
Нестерове,Красноокнянський,Одеська,29.40285,47.36172
Римарівка,Красноокнянський,Одеська,29.4286,47.34369
Василівка,Фрунзівський,Одеська,29.61416,47.36189
Малаївці,Красноокнянський,Одеська,29.4207,47.48411
Липецьке,Котовський,Одеська,29.69759,47.73611
Гандрабури,Ананьївський,Одеська,29.86771,47.71809
Гавиноси,Красноокнянський,Одеська,29.29607,47.66058
Вишневе,Котовський,Одеська,29.73381,47.68427
Новоолександрівка,Любашівський,Одеська,30.04778,47.53321
Коханівка,Ананьївський,Одеська,30.00761,47.61423
Володимирівка,Красноокнянський,Одеська,29.65897,47.5387
Онилове,Фрунзівський,Одеська,29.89706,47.44961
Никомаврівка,Ширяївський,Одеська,29.9968,47.29889
Нова Григорівка,Фрунзівський,Одеська,29.90547,47.29786
Дружелюбівка,Фрунзівський,Одеська,29.91612,47.27159
Весела Балка,Фрунзівський,Одеська,29.87629,47.28275
Єлизаветівка,Фрунзівський,Одеська,29.78016,47.31382
Загір'я,Фрунзівський,Одеська,29.82805,47.3315
Андрусова,Фрунзівський,Одеська,29.87183,47.30026
Богданове Перше,Фрунзівський,Одеська,29.83458,47.26421
Садове,Красноокнянський,Одеська,29.46293,47.32824
Галупове,Ширяївський,Одеська,30.03027,47.30198
Козаче,Ананьївський,Одеська,30.01465,47.58659
Шевченкове,Ананьївський,Одеська,30.04006,47.5629
Валентинівка,Ширяївський,Одеська,30.0416,47.40995
Вестерничани,Котовський,Одеська,29.53915,47.7162
Куяльник,Котовський,Одеська,29.55391,47.72118
Глибочок,Котовський,Одеська,29.49143,47.72873
Ясинове,Котовський,Одеська,29.31822,47.74589
Падрецеве,Котовський,Одеська,29.30466,47.71688
Коси,Котовський,Одеська,29.49572,47.6786
Гертопи,Котовський,Одеська,29.53915,47.69749
Соболівка,Котовський,Одеська,29.56558,47.69337
Андріївка,Котовський,Одеська,29.62824,47.70744
Мала Олександрівка,Котовський,Одеська,29.60781,47.70521
Кирилівка,Котовський,Одеська,29.81209,47.65869
Єфросинівка,Котовський,Одеська,29.78651,47.66659
Чапаєвка,Котовський,Одеська,29.77072,47.67723
Грекове Друге,Котовський,Одеська,29.72866,47.66539
Грекове Перше,Котовський,Одеська,29.70497,47.67929
Чубівка,Котовський,Одеська,29.58326,47.64994
Сагайдак,Красноокнянський,Одеська,29.27616,47.62659
Василівка,Красноокнянський,Одеська,29.59562,47.6247
Поплавка,Котовський,Одеська,29.75338,47.62436
Оброчне,Котовський,Одеська,29.84642,47.6362
Калини,Ананьївський,Одеська,29.89294,47.64427
Благодатне,Ананьївський,Одеська,29.97534,47.63655
Мала Петрівка,Котовський,Одеська,29.76952,47.58573
Гор'ївка,Котовський,Одеська,29.64661,47.61131
Степанівка,Котовський,Одеська,29.65622,47.59586
Калістратівка,Красноокнянський,Одеська,29.61914,47.61423
Волярка,Красноокнянський,Одеська,29.47975,47.61423
Дем'янівка,Красноокнянський,Одеська,29.56301,47.57612
Топик,Котовський,Одеська,29.75836,47.52891
Федосіївка,Фрунзівський,Одеська,29.77432,47.5217
Петрівка,Фрунзівський,Одеська,29.73913,47.51793
Іванівка,Красноокнянський,Одеська,29.5443,47.52016
Ткаченка,Красноокнянський,Одеська,29.30569,47.47656
Одаї,Красноокнянський,Одеська,29.42911,47.50402
Червоний Орач,Красноокнянський,Одеська,29.44902,47.5102
Петрівка,Котовський,Одеська,29.47889,47.48892
Улянівка,Красноокнянський,Одеська,29.71081,47.47415
Красне,Ананьївський,Одеська,29.96143,47.49132
Мала Топорівка,Фрунзівський,Одеська,29.93036,47.4345
Перехрестове Перше,Фрунзівський,Одеська,29.77312,47.44343
Кримпулька,Фрунзівський,Одеська,29.64506,47.4563
Левантівка,Красноокнянський,Одеська,29.51099,47.46849
Унтилівка,Красноокнянський,Одеська,29.43632,47.46609
Розівка,Красноокнянський,Одеська,29.33916,47.4575
Дубове,Красноокнянський,Одеська,29.27754,47.43811
Новорозівка,Красноокнянський,Одеська,29.32921,47.41922
Платонове,Красноокнянський,Одеська,29.36766,47.42369
Вижине,Красноокнянський,Одеська,29.49743,47.41751
Гірківка,Фрунзівський,Одеська,29.72797,47.43072
Петрівка,Фрунзівський,Одеська,29.80333,47.40017
Жигайлове,Фрунзівський,Одеська,29.89517,47.42557
Бранкованове,Ширяївський,Одеська,29.96967,47.40721
Балашове,Фрунзівський,Одеська,29.74926,47.38026
Нова Шибка,Фрунзівський,Одеська,29.70085,47.37768
Новомиколаївка,Фрунзівський,Одеська,29.67733,47.39279
Червона Стінка,Фрунзівський,Одеська,29.64008,47.39468
Дністровець,Красноокнянський,Одеська,29.46602,47.38077
Федорівка,Красноокнянський,Одеська,29.35272,47.39365
Скинешори,Фрунзівський,Одеська,29.88607,47.34627
Копійкове,Ширяївський,Одеська,29.90994,47.33957
Орлівка,Красноокнянський,Одеська,29.32732,47.45733
Бочманівка,Котовський,Одеська,29.56627,47.65577
Горячівка,Красноокнянський,Одеська,29.19359,47.48394
Качурівка,Котовський,Одеська,29.77964,47.62762
Малігонове,Ширяївський,Одеська,29.96555,47.36395
Майорське,Фрунзівський,Одеська,29.77312,47.27468
Рудниця,Піщанський,Вінницька,28.93524,48.25642
Чечельник,Чечельницький,Вінницька,29.36302,48.21092
Завалля,Гайворонський,Кіровоградська,30.01946,48.21487
Салькове,Гайворонський,Кіровоградська,29.99027,48.26105
Балта,Балтський,Одеська,29.62034,47.93592
Слобідка,Кодимський,Одеська,29.33848,47.88906
Кодима,Кодимський,Одеська,29.11051,48.09162
Брохвичі,Піщанський,Вінницька,28.93353,48.18569
Попелюхи,Піщанський,Вінницька,28.97078,48.21779
Білий Камінь,Чечельницький,Вінницька,29.37504,48.26706
Куренівка,Чечельницький,Вінницька,29.20492,48.25247
Луги,Чечельницький,Вінницька,29.14106,48.22174
Гонорівка,Піщанський,Вінницька,29.0015,48.18123
Городище,Піщанський,Вінницька,29.07068,48.26156
Рудницьке,Піщанський,Вінницька,29.00768,48.2535
Рибки,Піщанський,Вінницька,29.04356,48.18809
Голдашівка,Бершадський,Вінницька,29.71081,48.22328
Вербка,Чечельницький,Вінницька,29.28474,48.21384
Ольгопіль,Чечельницький,Вінницька,29.49537,48.19015
Тартак,Чечельницький,Вінницька,29.41212,48.20234
Михайлівка,Бершадський,Вінницька,29.65588,48.23307
Любомирка,Чечельницький,Вінницька,29.50945,48.13351
Стратіївка,Чечельницький,Вінницька,29.42585,48.14484
Бритавка,Чечельницький,Вінницька,29.17814,48.17402
Вовчок,Бершадський,Вінницька,29.56301,48.22843
Чорномин,Піщанський,Вінницька,29.00854,48.22483
Рогізка,Чечельницький,Вінницька,29.43907,48.248
Червона Гребля,Чечельницький,Вінницька,29.30517,48.13402
Демівка,Чечельницький,Вінницька,29.58344,48.15119
Романівка,Бершадський,Вінницька,29.6739,48.26706
Лісниче,Бершадський,Вінницька,29.58155,48.26191
Кидрасівка,Бершадський,Вінницька,29.72969,48.24457
Берізки-чечельницькі,Чечельницький,Вінницька,29.63511,48.13986
Василівка,Чечельницький,Вінницька,29.28148,48.25144
Козлівка,Піщанський,Вінницька,29.05781,48.22346
Козацьке,Піщанський,Вінницька,29.02039,48.14552
Анютине,Чечельницький,Вінницька,29.36817,48.1711
Новоукраїнка,Чечельницький,Вінницька,29.34809,48.10776
Тарасівка,Чечельницький,Вінницька,29.44456,48.22019
Казавчин,Гайворонський,Кіровоградська,29.94358,48.2741
Могильне,Гайворонський,Кіровоградська,30.0416,48.2765
Котовка,Гайворонський,Кіровоградська,29.81295,48.27873
Бандурове,Гайворонський,Кіровоградська,29.8605,48.2274
Олексіївка,Кодимський,Одеська,28.92614,47.99188
Баштанків,Кодимський,Одеська,28.99996,48.10793
Ясенове Перше,Любашівський,Одеська,30.01499,47.90726
Савранське,Балтський,Одеська,29.8526,48.15393
Гербине,Балтський,Одеська,29.74222,48.17522
Пужайкове,Балтський,Одеська,29.8169,48.11136
Байбузівка,Савранський,Одеська,29.92092,48.11085
Концеба,Савранський,Одеська,29.97036,48.11497
Пиріжна,Кодимський,Одеська,29.10175,48.15702
Писарівка,Кодимський,Одеська,29.04802,48.04888
Грабове,Кодимський,Одеська,29.03687,48.0221
Лисогірка,Кодимський,Одеська,29.13952,48.06192
Смолянка,Кодимський,Одеська,29.3498,48.06433
Перейма,Балтський,Одеська,29.49503,48.07051
Ухожани,Балтський,Одеська,29.67253,48.08029
Шляхове,Балтський,Одеська,29.75235,48.07239
Кринички,Балтський,Одеська,29.70514,48.03326
Йосипівка,Савранський,Одеська,29.91646,48.04235
Лісничівка,Балтський,Одеська,29.52353,48.01077
Шершенці,Кодимський,Одеська,29.01112,47.98605
Круті,Кодимський,Одеська,29.20372,47.95893
Олександрівка,Кодимський,Одеська,29.22947,47.99497
Петрівка,Кодимський,Одеська,29.26569,47.98588
Стримба,Кодимський,Одеська,29.305,47.97609
Пасат,Балтський,Одеська,29.80162,47.9706
Мирони,Балтський,Одеська,29.57245,47.9488
Оленівка,Балтський,Одеська,29.50155,47.9536
Семенівка,Кодимський,Одеська,29.21488,47.92494
Мала Слобідка,Кодимський,Одеська,29.28406,47.90554
Тимкове,Кодимський,Одеська,29.28732,47.87395
Дібрівка,Котовський,Одеська,29.41109,47.87001
Зелений Кут,Котовський,Одеська,29.48748,47.88116
Сінне,Балтський,Одеська,29.56541,47.92047
Петрівка,Балтський,Одеська,29.58344,47.89524
Бендзари,Балтський,Одеська,29.66995,47.92768
Андріяшівка,Балтський,Одеська,29.73192,47.91498
Немирівське,Балтський,Одеська,29.746,47.92322
Перельоти,Балтський,Одеська,29.76694,47.91223
Гольма,Балтський,Одеська,29.8411,47.92116
Познанка Перша,Любашівський,Одеська,29.93912,47.92511
Познанка Друга,Любашівський,Одеська,29.94135,47.91738
Білине,Балтський,Одеська,29.62446,47.8731
Струтинка,Ананьївський,Одеська,29.81381,47.85147
Жеребкове,Ананьївський,Одеська,29.87801,47.83859
Михайлівка,Ананьївський,Одеська,29.97637,47.83035
Байтали,Ананьївський,Одеська,29.82651,47.80649
Гонората,Котовський,Одеська,29.44113,47.81542
Кирилівка,Кодимський,Одеська,29.33882,47.84048
Романівка,Котовський,Одеська,29.34397,47.81095
Мурована,Котовський,Одеська,29.41229,47.77731
Капустянка,Савранський,Одеська,30.03885,48.00476
Ясенове Друге,Любашівський,Одеська,30.02169,47.89352
Будеї,Кодимський,Одеська,29.27925,48.05145
Борсуки,Балтський,Одеська,29.42808,48.04047
Волова,Балтський,Одеська,29.61451,48.09557
Бакша,Савранський,Одеська,29.98272,48.013
Селиванівка,Ананьївський,Одеська,29.8847,47.78246
Березівка,Балтський,Одеська,29.36371,47.98759
Обжиле,Балтський,Одеська,29.37916,47.98862
Плоске,Балтський,Одеська,29.86994,47.99103
Гидерим,Котовський,Одеська,29.56953,47.82349
Білоусівка,Савранський,Одеська,30.02272,47.98365
Кам'яне,Савранський,Одеська,29.93122,48.18792
Піщана,Балтський,Одеська,29.72952,48.12715
Чернече,Балтський,Одеська,29.58841,48.06433
Саражинка,Балтський,Одеська,29.44748,48.08784
Кармалюківка,Балтський,Одеська,29.43152,47.94863
Домниця,Котовський,Одеська,29.22878,47.80649
Котовці,Кодимський,Одеська,29.07463,47.99944
Федорівка,Кодимський,Одеська,29.20046,48.0633
Червона Зірка,Балтський,Одеська,29.73913,48.03738
Погреби,Любашівський,Одеська,29.94993,47.973
Мошняги,Балтський,Одеська,29.50481,47.94502
Євтодія,Балтський,Одеська,29.43117,47.96322
Правда,Кодимський,Одеська,29.34929,47.9052
Зелений Гай,Балтський,Одеська,29.38191,47.91893
Семено-карпівка,Балтський,Одеська,29.49263,47.91086
Відрада,Балтський,Одеська,29.55013,47.8688
Акулинівка,Балтський,Одеська,29.5364,47.85044
Пашківка,Балтський,Одеська,29.58069,47.8422
Харитинівка,Балтський,Одеська,29.59528,47.85559
Великий Фонтан,Котовський,Одеська,29.54001,47.81834
Малий Фонтан,Котовський,Одеська,29.51923,47.80168
Затишшя,Котовський,Одеська,29.37401,47.83035
Климентове,Котовський,Одеська,29.28989,47.80649
Велике Бурилове,Котовський,Одеська,29.27994,47.77748
Миколаївка Перша,Котовський,Одеська,29.51786,47.78606
Новогеоргіївка,Ананьївський,Одеська,29.99147,47.77885
Осички,Савранський,Одеська,30.02735,48.13042
Гетьманівка,Савранський,Одеська,29.99439,48.06707
Пасицели,Балтський,Одеська,29.67527,47.82932
Коритне,Балтський,Одеська,29.69193,47.98691
Козацьке,Балтський,Одеська,29.64317,47.99429
Лабушне,Кодимський,Одеська,29.13403,48.01969
Крижовлин,Балтський,Одеська,29.70635,48.07617
Ракулове,Балтський,Одеська,29.78754,48.05282
Івашків,Кодимський,Одеська,29.20183,48.12303
Серби,Кодимський,Одеська,29.06674,48.1014
Борщі,Котовський,Одеська,29.49623,47.86331
Борщі,Котовський,Одеська,29.48748,47.83172
Доманівка,Доманівський,Миколаївська,30.98522,47.63071
Кудрявцівка,Веселинівський,Миколаївська,31.0199,47.29889
Миколаївка,Миколаївський,Одеська,30.75468,47.53767
Ширяєве,Ширяївський,Одеська,30.18974,47.38455
Мала Врадіївка,Врадіївський,Миколаївська,30.72584,47.77285
Зелений Гай,Доманівський,Миколаївська,30.98642,47.74418
Кузнецове,Доманівський,Миколаївська,30.96239,47.75276
Іванівка,Врадіївський,Миколаївська,30.93338,47.70899
Захарівка,Врадіївський,Миколаївська,30.73752,47.72323
Іванівка,Доманівський,Миколаївська,30.69357,47.7416
Йосипівка,Врадіївський,Миколаївська,30.64327,47.76289
Гуляницьке,Врадіївський,Миколаївська,30.56826,47.74195
Богемка,Врадіївський,Миколаївська,30.52105,47.74074
Федорівка,Врадіївський,Миколаївська,30.42664,47.69697
Острогірське,Врадіївський,Миколаївська,30.51212,47.68976
Тарасівка,Врадіївський,Миколаївська,30.58319,47.71259
Нововасилівка,Врадіївський,Миколаївська,30.64413,47.69766
Новопавлівка,Врадіївський,Миколаївська,30.55349,47.66144
Великовеселе,Врадіївський,Миколаївська,30.67434,47.65268
Новоолексіївка,Врадіївський,Миколаївська,30.73855,47.66161
Фрунзе,Доманівський,Миколаївська,30.9066,47.68135
Олександрівка,Доманівський,Миколаївська,30.85322,47.63346
Бобрик,Врадіївський,Миколаївська,30.61409,47.65629
Шевченко,Доманівський,Миколаївська,30.84652,47.61063
Володимирівка,Доманівський,Миколаївська,30.87519,47.58951
Ізбашівка,Доманівський,Миколаївська,30.93699,47.52033
Івано-федорівка,Доманівський,Миколаївська,30.89356,47.48823
Котовське,Доманівський,Миколаївська,30.89201,47.51501
Олександрівка,Доманівський,Миколаївська,30.9248,47.46231
Мостове,Веселинівський,Миколаївська,30.98831,47.41716
Дворянка,Доманівський,Миколаївська,30.92943,47.41836
Новомиколаївка,Веселинівський,Миколаївська,31.02797,47.3521
Градівка,Веселинівський,Миколаївська,31.07861,47.38953
Поріччя,Веселинівський,Миколаївська,31.12478,47.38712
Звенигородка,Веселинівський,Миколаївська,31.17251,47.38558
Нове,Вознесенський,Миколаївська,31.12925,47.48497
Шевченко,Доманівський,Миколаївська,31.092,47.49664
Суха Балка,Веселинівський,Миколаївська,31.00994,47.50728
Лідіївка,Доманівський,Миколаївська,31.0017,47.54248
Зброшкове,Доманівський,Миколаївська,31.05509,47.59552
Забари,Доманівський,Миколаївська,31.07466,47.63414
Коштове,Доманівський,Миколаївська,31.08152,47.67654
Новолікарське,Доманівський,Миколаївська,31.05972,47.68204
Богданівське,Доманівський,Миколаївська,31.08736,47.70006
Анетівка,Доманівський,Миколаївська,31.12753,47.70693
Щуцьке,Доманівський,Миколаївська,31.14985,47.71397
Козубівка,Доманівський,Миколаївська,31.14315,47.54007
Виноградний Сад,Доманівський,Миколаївська,31.17216,47.75997
Михайлівка,Веселинівський,Миколаївська,31.0338,47.32258
Виноградівка,Веселинівський,Миколаївська,31.02488,47.26747
Новосілка,Вознесенський,Миколаївська,31.08822,47.31417
Поділля,Веселинівський,Миколаївська,31.13268,47.29425
Краснопіль,Врадіївський,Миколаївська,30.43608,47.74795
Зимницьке,Врадіївський,Миколаївська,30.46801,47.72873
Ковалівка,Врадіївський,Миколаївська,30.56826,47.63809
Біляєве,Врадіївський,Миколаївська,30.5595,47.63723
Макієве,Врадіївський,Миколаївська,30.6922,47.6168
Копані,Доманівський,Миколаївська,30.76944,47.70761
Мар'янівка,Врадіївський,Миколаївська,30.4814,47.76993
Филимонівка,Врадіївський,Миколаївська,30.60911,47.75757
Маринівка,Доманівський,Миколаївська,30.88102,47.77216
Царедарівка,Доманівський,Миколаївська,30.84704,47.71757
Олександродар,Доманівський,Миколаївська,30.87845,47.6841
Бондарівка,Веселинівський,Миколаївська,31.05269,47.27468
Капітанка,Врадіївський,Миколаївська,30.55384,47.73542
Веселий Лан,Врадіївський,Миколаївська,30.42337,47.72632
Юр'ївка,Врадіївський,Миколаївська,30.56362,47.72478
Гражданівка,Врадіївський,Миколаївська,30.71898,47.70264
Шевченко,Врадіївський,Миколаївська,30.4184,47.66401
Сила,Доманівський,Миколаївська,30.83519,47.675
Зелений Яр,Доманівський,Миколаївська,31.01372,47.69268
Новоселівка,Доманівський,Миколаївська,30.88875,47.63689
Казаринське,Доманівський,Миколаївська,30.97973,47.59432
Широкі Криниці,Доманівський,Миколаївська,30.9363,47.57715
Копи,Доманівський,Миколаївська,30.80584,47.55535
Крута Гора,Доманівський,Миколаївська,30.90557,47.45476
Грибоносове,Доманівський,Миколаївська,30.8721,47.45973
Першотравнівка,Доманівський,Миколаївська,30.9569,47.44446
Червона Поляна,Доманівський,Миколаївська,30.9605,47.42884
Веселе,Доманівський,Миколаївська,31.01097,47.39776
Воронівка,Веселинівський,Миколаївська,30.99089,47.35227
Ланове,Березівський,Одеська,30.92789,47.35897
Зелене,Веселинівський,Миколаївська,30.97372,47.33494
Чернігівка,Доманівський,Миколаївська,31.0393,47.40137
Кременівка,Веселинівський,Миколаївська,31.1756,47.37476
Горянка,Доманівський,Миколаївська,31.10247,47.5296
Іванівка,Доманівський,Миколаївська,31.02694,47.57664
Чорталка,Доманівський,Миколаївська,31.07569,47.58076
Птиче,Доманівський,Миколаївська,31.13749,47.65165
Колосівка,Веселинівський,Миколаївська,30.91021,47.3152
Кутузівка,Веселинівський,Миколаївська,30.94385,47.32944
Вікторівка,Доманівський,Миколаївська,30.99913,47.72152
Миколаївка,Доманівський,Миколаївська,30.97578,47.38781
Новопавлівка,Веселинівський,Миколаївська,31.06728,47.26782
Макарове,Ширяївський,Одеська,30.1276,47.32447
Осинівка,Ширяївський,Одеська,30.22888,47.33339
Олександро-вовкове,Ширяївський,Одеська,30.26545,47.29872
Тимофіївка,Ширяївський,Одеська,30.34029,47.32309
Жукове,Миколаївський,Одеська,30.49238,47.30575
Мартинівка,Миколаївський,Одеська,30.6086,47.33185
Рождественка,Миколаївський,Одеська,30.61752,47.31365
Петрівка,Миколаївський,Одеська,30.61512,47.34146
Сиротинка,Миколаївський,Одеська,30.65683,47.30026
Червоноволодимирівка,Березівський,Одеська,30.80326,47.30455
Михайло-олександрівка,Березівський,Одеська,30.71297,47.27228
Лукашівка,Березівський,Одеська,30.63006,47.30043
Красне,Березівський,Одеська,30.56706,47.27194
Антонівка,Березівський,Одеська,30.48346,47.27674
Петрівське,Ширяївський,Одеська,30.43179,47.27898
Жовтневе,Ширяївський,Одеська,30.22734,47.28327
Бокове,Любашівський,Одеська,30.18631,47.73456
Сергіївка,Любашівський,Одеська,30.33566,47.77079
Шелехове,Ананьївський,Одеська,30.1343,47.675
Дмитрівка,Любашівський,Одеська,30.26356,47.71603
Сирівське,Любашівський,Одеська,30.36484,47.72049
Великобоярка,Ананьївський,Одеська,30.12674,47.67191
Кохівка,Ананьївський,Одеська,30.15987,47.65903
Велика Василівка,Любашівський,Одеська,30.23214,47.64427
Шайтанка,Любашівський,Одеська,30.1997,47.65406
Козачий Яр,Любашівський,Одеська,30.26133,47.67912
Михайлівка,Любашівський,Одеська,30.28536,47.63071
Мала Василівка,Любашівський,Одеська,30.29051,47.6132
Дмитрівське,Любашівський,Одеська,30.39694,47.66333
Шимкове,Ананьївський,Одеська,30.07782,47.59123
Вербове,Ананьївський,Одеська,30.13121,47.58831
Новоолександрівка,Ананьївський,Одеська,30.21137,47.59672
Новотроїцьке,Миколаївський,Одеська,30.32055,47.59912
Комарівка,Любашівський,Одеська,30.31883,47.59088
Покровка,Любашівський,Одеська,30.36518,47.58213
Сухий Овраг,Миколаївський,Одеська,30.63349,47.6108
Дружелюбівка,Миколаївський,Одеська,30.76824,47.59878
Софіївка,Миколаївський,Одеська,30.67005,47.55535
Василівка,Миколаївський,Одеська,30.61752,47.56496
Мала Дворянка,Миколаївський,Одеська,30.55281,47.58076
Левадівка,Миколаївський,Одеська,30.41891,47.54831
Настасіївка,Миколаївський,Одеська,30.40432,47.54763
Новогригорівка,Миколаївський,Одеська,30.31471,47.55672
Дружелюбівка,Ананьївський,Одеська,30.15472,47.54488
Новодачне,Ананьївський,Одеська,30.13292,47.55895
Новотроїцьке,Любашівський,Одеська,30.56225,47.51913
Чарівне,Миколаївський,Одеська,30.62216,47.52479
Мар'янівка,Миколаївський,Одеська,30.79331,47.509
Переселенці,Миколаївський,Одеська,30.66542,47.4848
Піщана Петрівка,Миколаївський,Одеська,30.34012,47.50454
Суха Журівка,Ширяївський,Одеська,30.13327,47.47879
Мар'янівка,Ширяївський,Одеська,30.14923,47.44411
Мар'ївка,Ширяївський,Одеська,30.33806,47.44909
Новопетрівка,Миколаївський,Одеська,30.74678,47.45888
Новопокровка,Миколаївський,Одеська,30.80429,47.43828
Антонюки,Миколаївський,Одеська,30.70713,47.43896
Романівка,Миколаївський,Одеська,30.67417,47.40841
Червоний Кут,Ширяївський,Одеська,30.44346,47.41012
Жовтневе,Ширяївський,Одеська,30.31609,47.39914
Йосипівка,Ширяївський,Одеська,30.23918,47.41922
Чогодарівка,Ширяївський,Одеська,30.07336,47.36944
Якимів Яр,Ширяївський,Одеська,30.27695,47.38386
Стрюкове,Миколаївський,Одеська,30.57478,47.37528
Суха Верба,Березівський,Одеська,30.81133,47.3945
Яснопілля,Березівський,Одеська,30.81665,47.35536
Котовське,Березівський,Одеська,30.78009,47.33974
Нова Григорівка,Миколаївський,Одеська,30.44518,47.35519
Лідівка,Ширяївський,Одеська,30.36982,47.33837
Яринославка,Ширяївський,Одеська,30.23558,47.34764
Амури,Ананьївський,Одеська,30.17395,47.58436
Миколаївка,Ширяївський,Одеська,30.25017,47.53218
Жовтневе,Ширяївський,Одеська,30.35128,47.45355
Андрієво-іванівка,Миколаївський,Одеська,30.46337,47.50076
Каховка,Миколаївський,Одеська,30.4505,47.52754
Заплази,Любашівський,Одеська,30.16314,47.77113
Демидівка,Любашівський,Одеська,30.25086,47.7598
Олексіївка,Миколаївський,Одеська,30.57306,47.61148
Воровського,Миколаївський,Одеська,30.72722,47.63174
Кудрявка,Березівський,Одеська,30.85871,47.41321
Шевченка,Миколаївський,Одеська,30.69649,47.35193
Польове,Ширяївський,Одеська,30.40054,47.28773
Бірюкове,Миколаївський,Одеська,30.42732,47.31262
Подільці,Ширяївський,Одеська,30.16108,47.40858
Романівка,Ананьївський,Одеська,30.20451,47.55621
Вікторівка,Ширяївський,Одеська,30.30579,47.48634
Ісаєве,Миколаївський,Одеська,30.5032,47.47003
Скосарівка,Миколаївський,Одеська,30.52551,47.44411
Червоний Яр,Любашівський,Одеська,30.3578,47.66487
Велике Бокове,Любашівський,Одеська,30.1712,47.74984
Троїцьке,Любашівський,Одеська,30.29051,47.63826
Каре,Миколаївський,Одеська,30.55744,47.55569
Петрівка,Любашівський,Одеська,30.11456,47.74383
Бердинове,Ширяївський,Одеська,30.17567,47.29563
Виноградівка,Ширяївський,Одеська,30.27369,47.30678
Шабельники,Миколаївський,Одеська,30.4723,47.33271
Демидове,Березівський,Одеська,30.67692,47.2649
Ревова,Ширяївський,Одеська,30.3118,47.27657
Костянтинів,Ширяївський,Одеська,30.28055,47.28378
Петрівське,Ширяївський,Одеська,30.15507,47.27795
Шкарбинка,Любашівський,Одеська,30.33205,47.73422
Бобрицьке,Любашівський,Одеська,30.34115,47.70229
Морозова,Миколаївський,Одеська,30.59847,47.58402
Стародачне,Ананьївський,Одеська,30.11782,47.55724
Ярове,Ширяївський,Одеська,30.28965,47.53733
Перемога,Миколаївський,Одеська,30.70747,47.54883
Комарашеве,Миколаївський,Одеська,30.81356,47.49235
Широке,Миколаївський,Одеська,30.62817,47.48703
Добриднівка,Миколаївський,Одеська,30.48191,47.4781
Богданівка,Миколаївський,Одеська,30.55676,47.41133
Веселе,Миколаївський,Одеська,30.53907,47.42145
Зірка,Ширяївський,Одеська,30.37428,47.41321
Одаї,Ширяївський,Одеська,30.30819,47.42506
Нові Маяки,Ширяївський,Одеська,30.29841,47.39485
Журівка,Миколаївський,Одеська,30.49255,47.3921
Успенка,Миколаївський,Одеська,30.50268,47.36326
Яковлеве,Миколаївський,Одеська,30.63915,47.37511
Новогригорівка,Березівський,Одеська,30.83262,47.34524
Золочівське,Ширяївський,Одеська,30.34029,47.35365
Новогуляївка,Ширяївський,Одеська,30.2536,47.32996
Юркове,Березівський,Одеська,30.87364,47.28292
Старі Маяки,Ширяївський,Одеська,30.31145,47.34661
Преображенка,Ширяївський,Одеська,30.39728,47.35193
Новоандріївка,Ширяївський,Одеська,30.38218,47.43673
Чайківське,Любашівський,Одеська,30.39745,47.70864
Веселинівка,Березівський,Одеська,30.73288,47.34455
Новопавлівка,Ширяївський,Одеська,30.2651,47.50471
Катеринівка Перша,Любашівський,Одеська,30.23609,47.69543
Чайківка,Любашівський,Одеська,30.22614,47.7059
Новокарбівка,Любашівський,Одеська,30.32175,47.70161
Нововоздвиженка,Любашівський,Одеська,30.36055,47.74555
Гвоздівка,Миколаївський,Одеська,30.68396,47.50299
Амбарів,Миколаївський,Одеська,30.7164,47.3921
Григорівка,Ширяївський,Одеська,30.07336,47.47536
Олександрівка,Ширяївський,Одеська,30.04932,47.48892
Скосарівське,Ширяївський,Одеська,30.42526,47.42952
Ульяновка,Миколаївський,Одеська,30.83193,47.47227
Побузьке,Голованівський,Кіровоградська,30.60534,48.17196
Вільшанка,Вільшанський,Кіровоградська,30.8733,48.2341
Первомайськ,м. Первомайськ,Миколаївська,30.84618,48.04956
Підгородна,Первомайський,Миколаївська,30.88892,48.11239
Врадіївка,Врадіївський,Миколаївська,30.58594,47.85988
Криве Озеро,Кривоозерський,Миколаївська,30.34527,47.94657
Костянтинівка,Арбузинський,Миколаївська,31.13646,47.8331
Южноукраїнськ,м. Южноукраїнськ,Миколаївська,31.17045,47.8264
Зеленогірське,Любашівський,Одеська,30.0979,47.87533
Любашівка,Любашівський,Одеська,30.26648,47.84494
Саврань,Савранський,Одеська,30.07954,48.1323
Новомиколаївка,Добровеличківський,Кіровоградська,31.11002,48.25504
Богданове,Ульяновський,Кіровоградська,30.25532,48.21213
Сабатинівка,Ульяновський,Кіровоградська,30.18253,48.17711
Шевченка,Ульяновський,Кіровоградська,30.3027,48.21934
Роздол,Голованівський,Кіровоградська,30.43058,48.26294
Кам'яний Брід,Ульяновський,Кіровоградська,30.16588,48.25727
Синицівка,Ульяновський,Кіровоградська,30.19266,48.21968
Данилова Балка,Ульяновський,Кіровоградська,30.25257,48.2547
Молдовка,Голованівський,Кіровоградська,30.44672,48.22895
Олексіївка,Голованівський,Кіровоградська,30.47573,48.25161
Пушкове,Голованівський,Кіровоградська,30.5928,48.25642
Капітанка,Голованівський,Кіровоградська,30.58302,48.1953
Березівка,Гайворонський,Кіровоградська,30.0701,48.15874
Люшнювате,Голованівський,Кіровоградська,30.45204,48.17573
Михайлівка,Добровеличківський,Кіровоградська,31.13817,48.23341
Липовеньке,Голованівський,Кіровоградська,30.58268,48.22861
Лозувата,Ульяновський,Кіровоградська,30.35814,48.24182
Дельфінове,Ульяновський,Кіровоградська,30.37514,48.20148
Петрівка,Ульяновський,Кіровоградська,30.11164,48.28337
Котовське,Вільшанський,Кіровоградська,30.79039,48.20148
Сухий Ташлик,Вільшанський,Кіровоградська,30.6855,48.21951
Станкувате,Вільшанський,Кіровоградська,31.0441,48.24114
Надеждівка,Голованівський,Кіровоградська,30.47247,48.2056
Йосипівка,Вільшанський,Кіровоградська,30.78266,48.25745
Чемерпіль,Гайворонський,Кіровоградська,30.1379,48.15548
Оброчне,Вільшанський,Кіровоградська,31.11242,48.27427
Луполове,Ульяновський,Кіровоградська,30.31643,48.14655
Жакчик,Гайворонський,Кіровоградська,30.08331,48.21813
Костянтинівка,Голованівський,Кіровоградська,30.60619,48.27152
Залізничне,Вільшанський,Кіровоградська,30.72962,48.2468
Владиславка,Вільшанський,Кіровоградська,30.74781,48.25727
Степанівка,Вільшанський,Кіровоградська,30.82781,48.23908
Липняги,Голованівський,Кіровоградська,30.54525,48.23084
Грузянка,Голованівський,Кіровоградська,30.54628,48.21813
Матвіївка,Голованівський,Кіровоградська,30.41239,48.2147
Ташлик,Гайворонський,Кіровоградська,30.08246,48.17299
Маньківське,Ульяновський,Кіровоградська,30.24536,48.17642
Змійове,Ульяновський,Кіровоградська,30.39454,48.18312
Калмазове,Вільшанський,Кіровоградська,30.86557,48.179
Синюха,Вільшанський,Кіровоградська,30.83296,48.1953
Добре,Вільшанський,Кіровоградська,30.99329,48.28302
Кошаро-олександрівка,Ульяновський,Кіровоградська,30.35111,48.17076
Свірневе,Голованівський,Кіровоградська,30.49393,48.28234
Мала Мазниця,Вільшанський,Кіровоградська,31.09577,48.2523
Жовтневе,Гайворонський,Кіровоградська,30.11541,48.27375
Коломіївка,Первомайський,Миколаївська,30.63452,48.00459
Берізки,Кривоозерський,Миколаївська,30.55487,47.90554
Катеринка,Первомайський,Миколаївська,30.78524,47.92305
Степківка,Первомайський,Миколаївська,30.90489,47.89043
Зелені Кошари,Первомайський,Миколаївська,30.84395,47.88134
Кам'яний Міст,Первомайський,Миколаївська,30.7885,47.90949
Сирове,Врадіївський,Миколаївська,30.45513,47.8961
Володимирівка,Доманівський,Миколаївська,30.98831,47.83001
Жовтневе,Врадіївський,Миколаївська,30.73649,47.8034
Адамівка,Врадіївський,Миколаївська,30.66919,47.82881
Новомиколаївське,Врадіївський,Миколаївська,30.49822,47.7907
Доброжанівка,Врадіївський,Миколаївська,30.53032,47.77593
Романова Балка,Первомайський,Миколаївська,31.01338,47.92545
Остапівка,Арбузинський,Миколаївська,31.09114,47.9682
Благодатне,Арбузинський,Миколаївська,31.14075,47.99257
Петрівка,Доманівський,Миколаївська,31.04513,47.83361
Червоний Київ,Доманівський,Миколаївська,31.02093,47.86365
Львів,Первомайський,Миколаївська,31.09165,47.89472
Іванівка,Первомайський,Миколаївська,31.12564,47.88957
Панкратове,Арбузинський,Миколаївська,31.15242,47.86245
Богданівка,Доманівський,Миколаївська,31.13457,47.81593
Новопавлівка,Первомайський,Миколаївська,31.16341,48.18037
Тарасівка,Первомайський,Миколаївська,30.99964,48.18603
Бандурка,Первомайський,Миколаївська,31.02985,48.14569
Богословка,Первомайський,Миколаївська,31.04908,48.09729
Куріпчине,Первомайський,Миколаївська,31.01578,48.00785
Очеретня,Кривоозерський,Миколаївська,30.26785,48.06948
Михалкове,Кривоозерський,Миколаївська,30.26442,48.02587
Новоолександрівка,Первомайський,Миколаївська,30.93321,48.17247
Станіславчик,Первомайський,Миколаївська,30.79983,48.14707
Єрмолаївка,Первомайський,Миколаївська,30.74404,48.1735
Тернувате,Кривоозерський,Миколаївська,30.54594,48.11342
Токарівка,Кривоозерський,Миколаївська,30.63521,48.10449
Болеславчик,Первомайський,Миколаївська,30.78575,48.08561
Купріянівка,Кривоозерський,Миколаївська,30.63366,48.01506
Червоний Орач,Кривоозерський,Миколаївська,30.36295,47.82469
Кам'яний Міст,Первомайський,Миколаївська,30.81957,47.96339
Кримка,Первомайський,Миколаївська,30.76223,47.93747
Мазурове,Кривоозерський,Миколаївська,30.2924,47.99652
Леніне,Кривоозерський,Миколаївська,30.45118,47.9785
Старі Кошари,Первомайський,Миколаївська,30.79743,47.84735
Жовтневе,Первомайський,Миколаївська,31.01338,47.87241
Лиса Гора,Первомайський,Миколаївська,31.09251,48.17556
Тридуби,Кривоозерський,Миколаївська,30.41205,48.07566
Курячі Лози,Кривоозерський,Миколаївська,30.3451,48.08321
Лукашівка,Первомайський,Миколаївська,30.68911,48.16355
Бурилове,Кривоозерський,Миколаївська,30.37531,48.02175
Щасливка,Доманівський,Миколаївська,30.93802,47.80752
Воля,Доманівський,Миколаївська,30.88343,47.80443
Багачівка,Кривоозерський,Миколаївська,30.55452,47.97644
Полтавка,Первомайський,Миколаївська,30.7564,47.87859
Новоандріївка,Первомайський,Миколаївська,30.76704,47.84786
Генівка,Первомайський,Миколаївська,30.9157,47.94056
Соколівка,Первомайський,Миколаївська,30.96857,47.92459
Софіївка,Первомайський,Миколаївська,31.07346,48.08338
Секретарка,Кривоозерський,Миколаївська,30.52311,48.0475
Мала Мечетня,Кривоозерський,Миколаївська,30.42629,48.13522
Луканівка,Кривоозерський,Миколаївська,30.47058,47.91275
Іванівка,Арбузинський,Миколаївська,31.02814,47.95772
Семенівка,Арбузинський,Миколаївська,31.05955,47.93472
Мар'ївка,Доманівський,Миколаївська,31.11277,47.83962
Мигія,Первомайський,Миколаївська,30.95415,48.03909
Грушівка,Первомайський,Миколаївська,30.9399,48.02227
Красненьке,Кривоозерський,Миколаївська,30.32553,48.13763
Велика Мечетня,Кривоозерський,Миколаївська,30.58748,48.09008
Підгір'я,Первомайський,Миколаївська,30.67606,48.09866
Чаусове Друге,Первомайський,Миколаївська,30.70816,48.059
Кам'яна Балка,Первомайський,Миколаївська,30.71709,48.02553
Синюхин Брід,Первомайський,Миколаївська,30.82077,48.14587
Мала Багачівка,Кривоозерський,Миколаївська,30.51075,47.99892
Климівка,Кривоозерський,Миколаївська,30.70301,47.94296
Садибне,Первомайський,Миколаївська,30.85081,47.91172
Петрівка,Первомайський,Миколаївська,30.77425,47.88254
Болгарка,Врадіївський,Миколаївська,30.42303,47.85215
Степове,Первомайський,Миколаївська,30.95072,47.87121
Трудолюбівка,Доманівський,Миколаївська,30.99466,47.85181
Довженки,Доманівський,Миколаївська,30.79949,47.8046
Михайлівка,Врадіївський,Миколаївська,30.53101,47.80289
Краснівка,Врадіївський,Миколаївська,30.4347,47.77593
Довжанка,Доманівський,Миколаївська,30.78936,47.78074
Булацелове,Арбузинський,Миколаївська,31.11174,47.98588
Калинівка,Доманівський,Миколаївська,31.01852,47.81044
Лозуватка,Первомайський,Миколаївська,31.01132,48.19342
Світоч,Первомайський,Миколаївська,31.01526,48.16749
Шевченко,Арбузинський,Миколаївська,31.16753,48.12286
Шевченко,Первомайський,Миколаївська,30.97218,48.18449
Зелена Левада,Первомайський,Миколаївська,30.5171,48.15307
Мічуріне,Первомайський,Миколаївська,30.70747,48.10003
Миколаївка,Кривоозерський,Миколаївська,30.60911,48.01609
Сорочинка,Кривоозерський,Миколаївська,30.40363,48.04304
Антонівка,Доманівський,Миколаївська,30.86609,47.82434
Гаївське,Первомайський,Миколаївська,30.99003,48.036
Брід,Первомайський,Миколаївська,30.56774,48.11273
Чаусове,Первомайський,Миколаївська,30.71898,48.06089
Кінецьпіль,Первомайський,Миколаївська,30.7897,48.00081
Бандурка,Первомайський,Миколаївська,31.03346,48.12509
Голоскове,Кривоозерський,Миколаївська,30.43573,48.16097
Кумарі,Врадіївський,Миколаївська,30.66319,47.93541
Кумарі,Врадіївський,Миколаївська,30.65924,47.92133
Довга Пристань,Первомайський,Миколаївська,30.61855,48.13557
Іванівка,Кривоозерський,Миколаївська,30.60379,48.13196
Куйбишевка,Доманівський,Миколаївська,31.11929,47.86142
Дубки,Савранський,Одеська,30.06632,47.95944
Агеївка,Любашівський,Одеська,30.28914,47.91241
Іванівка,Кривоозерський,Миколаївська,30.22837,47.88666
Пилипівка,Врадіївський,Миколаївська,30.36123,47.8058
Володимирівка,Любашівський,Одеська,30.09859,47.81954
Іванівка,Любашівський,Одеська,30.29377,47.78057
Олександрівка,Любашівський,Одеська,30.3257,47.78469
Вільшанка,Савранський,Одеська,30.15799,48.14329
Слюсареве,Савранський,Одеська,30.21257,48.10123
Дубинове,Савранський,Одеська,30.28038,48.13368
Струтинка,Савранський,Одеська,30.09104,48.03772
Глибочок,Савранський,Одеська,30.19369,48.03635
Гвоздавка Перша,Любашівський,Одеська,30.08005,47.90005
Бобрик Перший,Любашівський,Одеська,30.18717,47.91962
Агафіївка,Любашівський,Одеська,30.37394,47.78297
Полянецьке,Савранський,Одеська,30.12657,48.07136
Неділкове,Савранський,Одеська,30.06649,48.03652
Арчепитівка,Любашівський,Одеська,30.14614,47.90537
Гвоздавка Друга,Любашівський,Одеська,30.08211,47.87773
Янишівка,Любашівський,Одеська,30.24811,47.92305
Адамівка,Любашівський,Одеська,30.2306,47.98073
Василівка,Любашівський,Одеська,30.06014,47.81061
Чабанівка,Любашівський,Одеська,30.05241,47.80701
